,ReferenceID,Block,Lot,BuildingAddress,NoticeDate,Neighborhood,PoliceDistrict,CouncilDistrict,lat,long,counter
1,0002 019 031016,2,19,1909 W NORTH AVE,3/10/2016,EASTERWOOD,WESTERN,7,39.30952601,-76.64848892,1
2,0007 057 031116,7,57,1734 APPLETON ST,3/11/2016,EASTERWOOD,WESTERN,7,39.30856758,-76.64921157,1
3,0125 012 030816,125,12,522 N CAREY ST,3/8/2016,HARLEM PARK,WESTERN,9,39.29482152,-76.63877572,1
4,0151 009 030716,151,9,317 N GILMOR ST,3/7/2016,FRANKLIN SQUARE,WESTERN,9,39.29261888,-76.64231678,1
5,0232 032 031116,232,32,1324 W LOMBARD ST,3/11/2016,UNION SQUARE,SOUTHERN,9,39.28680988,-76.63888529,1
6,0235 029 031116,235,29,45 S ARLINGTON AVE,3/11/2016,HOLLINS MARKET,SOUTHERN,9,39.28713548,-76.63498941,1
7,0275 060 030716,275,60,319 S MONROE ST,3/7/2016,CARROLLTON RIDGE,SOUTHERN,9,39.28383911,-76.64647246,1
8,0329 045 030716,329,45,1803 DRUID HILL AVE,3/7/2016,DRUID HEIGHTS,CENTRAL,11,39.3061856,-76.63334767,1
9,0599 008 031116,599,8,235 PARK AVE,3/11/2016,DOWNTOWN,CENTRAL,11,39.29280154,-76.6178644,1
10,0767 117 030816,767,117,1329 SARGEANT ST,3/8/2016,WASHINGTON VILLAGE/PIGTOWN,SOUTHERN,10,39.28035426,-76.63645611,1
11,0779 002 030716,779,2,1203 WASHINGTON BLVD,3/7/2016,WASHINGTON VILLAGE/PIGTOWN,SOUTHERN,10,39.28150228,-76.63396506,1
12,0779 026 030816,779,26,1253 WASHINGTON BLVD,3/8/2016,WASHINGTON VILLAGE/PIGTOWN,SOUTHERN,10,39.280852,-76.6348142,1
13,0801 019 030816,801,19,1136 W HAMBURG ST,3/8/2016,WASHINGTON VILLAGE/PIGTOWN,SOUTHERN,10,39.28010139,-76.63055854,1
14,0801 066 031016,801,66,1121 NANTICOKE ST,3/10/2016,WASHINGTON VILLAGE/PIGTOWN,SOUTHERN,10,39.28058109,-76.63071342,1
15,0855 008 030816,855,8,622 ARCHER ST,3/8/2016,WASHINGTON VILLAGE/PIGTOWN,SOUTHERN,10,39.28160587,-76.63017981,1
16,1020 059 030916,1020,59,1710 CLARKSON ST,3/9/2016,SOUTH BALTIMORE,SOUTHERN,11,39.27018816,-76.61614134,1
17,1126 056 030716,1126,56,1532 N BOND ST,3/7/2016,OLIVER,EASTERN,12,39.30815721,-76.59707552,1
18,1454 029 030716,1454,29,1816 N MILTON AVE,3/7/2016,BROADWAY EAST,EASTERN,13,39.31174375,-76.58335172,1
19,1477 047 031116,1477,47,1516 RUTLAND AVE,3/11/2016,BROADWAY EAST,EASTERN,12,39.30822909,-76.59304661,1
20,1500 011 030716,1500,11,2131 E OLIVER ST,3/7/2016,BROADWAY EAST,EASTERN,13,39.30757991,-76.58751523,1
21,1658 069 030916,1658,69,530 N BELNORD AVE,3/9/2016,MCELDERRY PARK,SOUTHEASTERN,13,39.29769466,-76.57887137,1
22,1661 009 030716,1661,9,3017 MCELDERRY ST,3/7/2016,ELLWOOD PARK/MONUMENT,SOUTHEASTERN,13,39.29784806,-76.57460498,1
23,1709 014 030816,1709,14,127 N MILTON AVE,3/8/2016,PATTERSON PARK NEIGHBORHOOD,SOUTHEASTERN,1,39.29373565,-76.58171453,1
24,1716 037 030816,1716,37,108 N CLINTON ST,3/8/2016,PATTERSON PARK NEIGHBORHOOD,SOUTHEASTERN,1,39.29380306,-76.57120245,1
25,0001 003 012512,1,3,2041 W NORTH AVE,1/25/2012,EASTERWOOD,WESTERN,7,39.30941765,-76.65104057,1
26,0001 006 120214,1,6,2035 W NORTH AVE,12/2/2014,EASTERWOOD,WESTERN,7,39.30942276,-76.65089166,1
27,0001 007 020113,1,7,2033 W NORTH AVE,2/1/2013,EASTERWOOD,WESTERN,7,39.30942443,-76.65084103,1
28,0001 008 070115,1,8,2031 W NORTH AVE,7/1/2015,EASTERWOOD,WESTERN,7,39.30942603,-76.65079304,1
29,0001 015 012816,1,15,2017 W NORTH AVE,1/28/2016,EASTERWOOD,WESTERN,7,39.30943944,-76.65044524,1
30,0001 026 121410,1,26,1810 N PAYSON ST,12/14/2010,EASTERWOOD,WESTERN,7,39.30902061,-76.65010741,1
31,0001 028 020808,1,28,1806 N PAYSON ST,2/8/2008,EASTERWOOD,WESTERN,7,39.30894358,-76.65010312,1
32,0001 029 120710,1,29,1804 N PAYSON ST,12/7/2010,EASTERWOOD,WESTERN,7,39.30890577,-76.650101,1
33,2307A019 031116,2307A,19,2437 W NORTH AVE,3/11/2016,COPPIN HEIGHTS/ASH-CO-EAST,WESTERN,7,39.30918947,-76.65702099,1
34,2319 013 031116,2319,13,1624 MORELAND AVE,3/11/2016,COPPIN HEIGHTS/ASH-CO-EAST,WESTERN,7,39.30688496,-76.6560888,1
35,2367 008 031116,2367,8,2514 RIGGS AVE,3/11/2016,BRIDGEVIEW/GREENLAWN,WESTERN,9,39.300868,-76.65722459,1
36,2402 023 031016,2402,23,2741 W NORTH AVE,3/10/2016,COPPIN HEIGHTS/ASH-CO-EAST,WESTERN,7,39.30894488,-76.66247273,1
37,2402 057 031016,2402,57,1700 ASHBURTON ST,3/10/2016,COPPIN HEIGHTS/ASH-CO-EAST,WESTERN,7,39.30744314,-76.66243699,1
38,2406 021 031116,2406,21,2841 W NORTH AVE,3/11/2016,NORTHWEST COMMUNITY ACTION,SOUTHWESTERN,7,39.30884735,-76.66500262,1
39,2418 063 031116,2418,63,1621 POPLAR GROVE ST,3/11/2016,NORTHWEST COMMUNITY ACTION,SOUTHWESTERN,7,39.30658799,-76.6653513,1
40,2441 010 030816,2441,10,1618 N ELLAMONT ST,3/8/2016,ROSEMONT,SOUTHWESTERN,9,39.30623418,-76.67108776,1
41,2445 034 030716,2445,34,2928 RIGGS AVE,3/7/2016,FRANKLINTOWN ROAD,SOUTHWESTERN,9,39.30025395,-76.66692907,1
42,2506A013 031116,2506A,13,715 MOUNT HOLLY ST,3/11/2016,EDGEWOOD,SOUTHWESTERN,8,39.29580061,-76.67963706,1
43,2542 017 031016,2542,17,212 S COLLINS AVE,3/10/2016,IRVINGTON,SOUTHWESTERN,8,39.28283004,-76.68371017,1
44,2755 010 031016,2755,10,3809 BONNER ROAD,3/10/2016,CONCERNED CITIZENS OF FOREST PARK,NORTHWESTERN,6,39.32267983,-76.68239714,1
45,2901 001 030716,2901,1,3701 W FOREST PARK AVE,3/7/2016,FOREST PARK,NORTHWESTERN,6,39.32520817,-76.67967628,1
46,3061A026 031116,3061A,26,3313 ALTO ROAD,3/11/2016,HANLON-LONGWOOD,NORTHWESTERN,7,39.31714857,-76.67350752,1
47,3176 028 031016,3176,28,2814 VIOLET AVE,3/10/2016,PARK CIRCLE,NORTHWESTERN,6,39.32986233,-76.66222642,1
48,3347F046 030716,3347F,46,4200 PALL MALL ROAD,3/7/2016,GREENSPRING,NORTHERN,6,39.33901314,-76.66179683,1
49,3420 006 031116,3420,6,2535 MADISON AVE,3/11/2016,RESERVOIR HILL,CENTRAL,7,39.31461196,-76.63929013,1
50,3537 070A 030916,3537,070A,3640 PAINE ST,3/9/2016,HAMPDEN,NORTHERN,14,39.3323183,-76.63056992,1
51,3542B036 030816,3542B,36,1244 W 37TH ST,3/8/2016,HAMPDEN,NORTHERN,7,39.33240931,-76.63707373,1
52,3572 001A 030716,3572,001A,0,3/7/2016,WOODBERRY,NORTHERN,7,39.3339831,-76.64485367,1
53,3644 001 030916,3644,1,2701 HAMPDEN AVE,3/9/2016,REMINGTON,NORTHERN,12,39.31940238,-76.62309868,1
54,3813 046 031016,3813,46,336 E 21ST ST,3/10/2016,BARCLAY,EASTERN,12,39.3136377,-76.61153797,1
55,3952 064 030916,3952,64,1934 E 28TH ST,3/9/2016,COLDSTREAM HOMESTEAD MONTEBELLO,NORTHEASTERN,14,39.3240416,-76.58861529,1
56,3962 029 030916,3962,29,1647 CHILTON ST,3/9/2016,COLDSTREAM HOMESTEAD MONTEBELLO,NORTHEASTERN,14,39.32731222,-76.59220833,1
57,3969M123 031016,3969M,123,1640 NORTHGATE ROAD,3/10/2016,HILLEN,NORTHEASTERN,3,39.34520721,-76.58768063,1
58,4131 021 030916,4131,21,1567 CARSWELL ST,3/9/2016,COLDSTREAM HOMESTEAD MONTEBELLO,NORTHEASTERN,14,39.32227105,-76.59528329,1
59,4139 026 030916,4139,26,2738 HARFORD ROAD,3/9/2016,COLDSTREAM HOMESTEAD MONTEBELLO,NORTHEASTERN,14,39.32126572,-76.59106093,1
60,4179G074 031116,4179G,74,3625 CHESTERFIELD AVE,3/11/2016,BELAIR-EDISON,NORTHEASTERN,13,39.31875134,-76.56380036,1
61,4507 032 031116,4507,32,4127 W ROGERS AVE,3/11/2016,WOODMERE,NORTHWESTERN,5,39.34662388,-76.69087433,1
62,4536A128 031116,4536A,128,5302 MAPLE AVE,3/11/2016,PIMLICO GOOD NEIGHBORS,NORTHWESTERN,5,39.35123971,-76.67777092,1
63,5090A008 030716,5090A,8,6014 YORK ROAD,3/7/2016,LAKE EVESHAM,NORTHERN,4,39.3667341,-76.61026276,1
64,5138 005 030816,5138,5,603 ORKNEY ROAD,3/8/2016,BELVEDERE,NORTHERN,4,39.36261319,-76.60643922,1
65,5150 004 030816,5150,4,600 TUNBRIDGE ROAD,3/8/2016,MID-GOVANS,NORTHERN,4,39.35658363,-76.60787716,1
66,5198 034 031016,5198,34,4606 CRADDOCK AVE,3/10/2016,KENILWORTH PARK,NORTHERN,4,39.34667216,-76.60171859,1
67,5643 010 031116,5643,10,6102 ALTA AVE,3/11/2016,WESTFIELD,NORTHEASTERN,2,39.3541709,-76.54502735,1
68,5898H014B 031116,5898H,014B,3906 PARKSIDE DR,3/11/2016,ARCADIA,NORTHEASTERN,3,39.33024502,-76.56742165,1
69,7056A018 030816,7056A,18,3438 6TH ST,3/8/2016,BROOKLYN,SOUTHERN,10,39.23953056,-76.6010089,1
70,8469 009 031016,8469,9,2600 QUEEN ANNE ROAD,3/10/2016,WINDSOR HILLS,NORTHWESTERN,8,39.3152955,-76.68822771,1
71,0007 053 122915,7,53,1726 APPLETON ST,12/29/2015,EASTERWOOD,WESTERN,7,39.30841552,-76.64920351,1
72,0006 032 011509,6,32,2002 PRESBURY ST,1/15/2009,EASTERWOOD,WESTERN,7,39.30800597,-76.65030361,1
73,0031 057 032316,31,57,1834 LAURENS ST,3/23/2016,SANDTOWN-WINCHESTER,WESTERN,7,39.30327593,-76.64742143,1
74,0055C063 032316,0055C,63,1104 N CARROLLTON AVE,3/23/2016,SANDTOWN-WINCHESTER,WESTERN,9,39.30139077,-76.63768238,1
75,0058 017 032316,58,17,1932 MOSHER ST,3/23/2016,MIDTOWN-EDMONDSON,WESTERN,9,39.29997845,-76.64873347,1
76,0073 024 031616,73,24,930 N MOUNT ST,3/16/2016,SANDTOWN-WINCHESTER,WESTERN,9,39.29980611,-76.6446717,1
77,0075 016 032416,75,16,1515 MOSHER ST,3/24/2016,SANDTOWN-WINCHESTER,WESTERN,9,39.2997724,-76.64245296,1
78,0082 058 032416,82,58,805 N BRICE ST,3/24/2016,MIDTOWN-EDMONDSON,WESTERN,9,39.2978901,-76.64974531,1
79,0096 052 031516,96,52,707 N MONROE ST,3/15/2016,HARLEM PARK,WESTERN,9,39.29682003,-76.64715186,1
80,0149 044 031616,149,44,310 N BRUCE ST,3/16/2016,FRANKLIN SQUARE,WESTERN,9,39.29235262,-76.64485001,1
81,0244 074 031516,244,74,1708 LEMMON ST,3/15/2016,UNION SQUARE,SOUTHERN,9,39.28584138,-76.64425453,1
82,0248 029 031516,248,29,121 S CALHOUN ST,3/15/2016,UNION SQUARE,SOUTHERN,9,39.28562872,-76.63911396,1
83,0265 011 031816,265,11,1321 W PRATT ST,3/18/2016,NEW SOUTHWEST/MOUNT CLARE,SOUTHERN,9,39.28532442,-76.63859617,1
84,0272 079 032216,272,79,2110 WILHELM ST,3/22/2016,CARROLLTON RIDGE,SOUTHWESTERN,9,39.28370048,-76.6504335,1
85,0273 071 031716,273,71,2003 MCHENRY ST,3/17/2016,CARROLLTON RIDGE,SOUTHERN,9,39.28397543,-76.64890327,1
86,0294 012 031416,294,12,2422 1/2 PENNSYLVANIA AVE,3/14/2016,PENN NORTH,WESTERN,7,39.30963682,-76.64232212,1
87,0294 027 031716,294,27,1627 W NORTH AVE,3/17/2016,PENN NORTH,WESTERN,7,39.30977597,-76.64324121,1
88,0294 054 031416,294,54,1707 N CAREY ST,3/14/2016,PENN NORTH,WESTERN,7,39.30907584,-76.6427263,1
89,0321 005 032116,321,5,1908 DRUID HILL AVE,3/21/2016,DRUID HEIGHTS,CENTRAL,11,39.30677018,-76.63483641,1
90,0620 017 032416,620,17,107 N HOWARD ST,3/24/2016,DOWNTOWN,CENTRAL,11,39.29073259,-76.61921092,1
91,0702 010 031616,702,10,2104 EAGLE ST,3/16/2016,CARROLLTON RIDGE,SOUTHWESTERN,9,39.28056347,-76.64933302,1
92,0758 109 031416,758,109,1347 GLYNDON AVE,3/14/2016,WASHINGTON VILLAGE/PIGTOWN,SOUTHERN,10,39.28096927,-76.63757631,1
93,0790 082 031716,790,82,1220 CLEVELAND ST,3/17/2016,WASHINGTON VILLAGE/PIGTOWN,SOUTHERN,10,39.28012403,-76.63313967,1
94,0857 022 032316,857,22,775 CARROLL ST,3/23/2016,WASHINGTON VILLAGE/PIGTOWN,SOUTHERN,10,39.28197942,-76.62814903,1
95,1160 025 032416,1160,25,1205 E PRESTON ST,3/24/2016,OLIVER,EASTERN,12,39.30490826,-76.60153842,1
96,1163 022 031516,1163,22,1212 N BOND ST,3/15/2016,OLIVER,EASTERN,12,39.30482475,-76.59687707,1
97,1163 050 031716,1163,50,1223 N CAROLINE ST,3/17/2016,OLIVER,EASTERN,12,39.30476771,-76.59772551,1
98,1449 079 031516,1449,79,1828 N CHESTER ST,3/15/2016,BROADWAY EAST,EASTERN,12,39.31152594,-76.58888589,1
99,1457 051 031516,1457,51,1706 N WOLFE ST,3/15/2016,BROADWAY EAST,EASTERN,12,39.30994021,-76.59184761,1
100,1473 025 032416,1473,25,1638 N BRADFORD ST,3/24/2016,BROADWAY EAST,EASTERN,13,39.30985999,-76.58529956,1
101,1496 034 032116,1496,34,1410 N GAY ST,3/21/2016,BROADWAY EAST,EASTERN,12,39.30686594,-76.59115322,1
102,1496 035 032116,1496,35,1408 N GAY ST,3/21/2016,BROADWAY EAST,EASTERN,12,39.30682426,-76.59116881,1
103,1503 045 032416,1503,45,1402 N MONTFORD AVE,3/24/2016,BROADWAY EAST,EASTERN,13,39.30719016,-76.58448412,1
104,1542 038 032116,1542,38,1232 N CURLEY ST,3/21/2016,BEREA,EASTERN,13,39.30577737,-76.57654284,1
105,0009 031 120508,9,31,1707 WESTWOOD AVE,12/5/2008,SANDTOWN-WINCHESTER,WESTERN,7,39.30868471,-76.64521986,1
106,0009 033 082012,9,33,1703 WESTWOOD AVE,8/20/2012,SANDTOWN-WINCHESTER,WESTERN,7,39.30868774,-76.64511791,1
107,0009 035 062014,9,35,1726 N MOUNT ST,6/20/2014,SANDTOWN-WINCHESTER,WESTERN,7,39.30855459,-76.64516938,1
108,0009 037 081607,9,37,1722 N MOUNT ST,8/16/2007,SANDTOWN-WINCHESTER,WESTERN,7,39.30848991,-76.64516322,1
109,1592 019 032316,1592,19,2536 E EAGER ST,3/23/2016,MILTON-MONTFORD,EASTERN,13,39.3020481,-76.58151278,1
110,1610 029H 032416,1610,029H,2639 ASHLAND AVE,3/24/2016,MADISON-EASTEND,EASTERN,13,39.30087416,-76.57979432,1
111,1654 027 032416,1654,27,2319 MCELDERRY ST,3/24/2016,MCELDERRY PARK,SOUTHEASTERN,13,39.29744074,-76.58439371,1
112,1686 003 031516,1686,3,2031 ORLEANS ST,3/15/2016,CARE,SOUTHEASTERN,13,39.29518214,-76.58827009,1
113,1722 019 032316,1722,19,2121 E FAIRMOUNT AVE,3/23/2016,BUTCHER'S HILL,SOUTHEASTERN,13,39.29274295,-76.58651081,1
114,2138 026 032316,2138,26,455 BRUNSWICK ST,3/23/2016,MILLHILL,SOUTHWESTERN,9,39.27940532,-76.65913947,1
115,2199G007 032116,2199G,7,150 S HILTON ST,3/21/2016,SAINT JOSEPHS,SOUTHWESTERN,8,39.28336832,-76.67242437,1
116,2201 020 032316,2201,20,2339 EDMONDSON AVE,3/23/2016,ROSEMONT HOMEOWNERS/TENANTS,WESTERN,9,39.29452829,-76.6544517,1
117,2230K013 031416,2230K,13,25 S ELLAMONT ST,3/14/2016,CARROLL-SOUTH HILTON,SOUTHWESTERN,9,39.28509941,-76.67018481,1
118,2247 020 032116,2247,20,230 S MONASTERY AVE,3/21/2016,IRVINGTON,SOUTHWESTERN,8,39.28334502,-76.6812959,1
119,2275A001 031816,2275A,1,246 N HILTON ST,3/18/2016,ALLENDALE,SOUTHWESTERN,8,39.28986146,-76.67284465,1
120,2286 032 032416,2286,32,3511 W MULBERRY ST,3/24/2016,ALLENDALE,SOUTHWESTERN,8,39.29163522,-76.67619861,1
121,2297 012 031616,2297,12,422 N LOUDON AVE,3/16/2016,ALLENDALE,SOUTHWESTERN,8,39.29234194,-76.68277277,1
122,2306 031 031716,2306,31,1722 RUXTON AVE,3/17/2016,COPPIN HEIGHTS/ASH-CO-EAST,WESTERN,7,39.30814389,-76.65526668,1
123,2348 017 031416,2348,17,2332 EDMONDSON AVE,3/14/2016,ROSEMONT HOMEOWNERS/TENANTS,WESTERN,9,39.29506303,-76.65431193,1
124,2401A036 031716,2401A,36,1806 BRADDISH AVE,3/17/2016,COPPIN HEIGHTS/ASH-CO-EAST,WESTERN,7,39.30853512,-76.66129249,1
125,2443A024 031716,2443A,24,2915 BELMONT AVE,3/17/2016,WINCHESTER,SOUTHWESTERN,9,39.30327997,-76.6659239,1
126,2443A025 031716,2443A,25,2917 BELMONT AVE,3/17/2016,WINCHESTER,SOUTHWESTERN,9,39.30327524,-76.6659744,1
127,2445 064 031516,2445,64,2907 WINCHESTER ST,3/15/2016,FRANKLINTOWN ROAD,SOUTHWESTERN,9,39.30108813,-76.66619769,1
128,2475 009 031716,2475,9,3016 EDMONDSON AVE,3/17/2016,FRANKLINTOWN ROAD,SOUTHWESTERN,9,39.29459084,-76.66727238,1
129,2475 026 031516,2475,26,3050 EDMONDSON AVE,3/15/2016,FRANKLINTOWN ROAD,SOUTHWESTERN,9,39.29456252,-76.66814195,1
130,2475E036 031516,2475E,36,3036 HARLEM AVE,3/15/2016,FRANKLINTOWN ROAD,SOUTHWESTERN,9,39.29596426,-76.6679032,1
131,2475H062 032316,2475H,62,955 ELLICOTT DRIVEWAY,3/23/2016,FRANKLINTOWN ROAD,SOUTHWESTERN,9,39.29843223,-76.66863655,1
132,2523B009 031716,2523B,9,917 ALLENDALE ST,3/17/2016,EDGEWOOD,SOUTHWESTERN,8,39.29852452,-76.67838633,1
133,2537 023 032416,2537,23,4124 WALRAD ST,3/24/2016,IRVINGTON,SOUTHWESTERN,8,39.28018866,-76.6842452,1
134,2545 004 032216,2545,4,222 S AUGUSTA AVE,3/22/2016,IRVINGTON,SOUTHWESTERN,8,39.28192385,-76.68503873,1
135,2733 011 031516,2733,11,4002 MAINE AVE,3/15/2016,CENTRAL FOREST PARK,NORTHWESTERN,6,39.32748673,-76.68610865,1
136,2880B004 032416,2880B,4,3807 CLIFTON AVE,3/24/2016,FAIRMONT,SOUTHWESTERN,7,39.31038899,-76.68199412,1
137,3004 007 031516,3004,7,2916 W NORTH AVE,3/15/2016,WALBROOK,SOUTHWESTERN,7,39.30938097,-76.6663401,1
138,3085A059 032416,3085A,59,2135 KOKO LANE,3/24/2016,PANWAY/BRADDISH AVENUE,WESTERN,7,39.31228221,-76.66306491,1
139,3207 069 031516,3207,69,1905 HERBERT ST,3/15/2016,MONDAWMIN,WESTERN,7,39.3102319,-76.6486453,1
140,3241 024 031416,3241,24,2214 BRYANT AVE,3/14/2016,PARKVIEW/WOODBROOK,WESTERN,7,39.31682353,-76.6491423,1
141,3307B024 031416,3307B,24,2602 ROSEWOOD AVE,3/14/2016,CENTRAL PARK HEIGHTS,NORTHWESTERN,6,39.33892017,-76.66447909,1
142,3311 012 032416,3311,12,4224 PARK HEIGHTS AVE,3/24/2016,CENTRAL PARK HEIGHTS,NORTHWESTERN,6,39.3371612,-76.66491026,1
143,3406 063 031716,3406,63,2525 PENNSYLVANIA AVE,3/17/2016,PENN NORTH,WESTERN,7,39.31069749,-76.64285033,1
144,3424 093 032116,3424,93,2225 MADISON AVE,3/21/2016,RESERVOIR HILL,CENTRAL,7,39.31105758,-76.63594744,1
145,3434 001 031516,3434,1,850 W NORTH AVE,3/15/2016,RESERVOIR HILL,CENTRAL,7,39.3111532,-76.63011842,1
146,3447 037 031616,3447,37,2327 LINDEN AVE,3/16/2016,RESERVOIR HILL,CENTRAL,7,39.31373953,-76.63499707,1
147,3816 015 032216,3816,15,318 E 22ND ST,3/22/2016,BARCLAY,EASTERN,12,39.3147188,-76.61203734,1
148,3825 042 031416,3825,42,2427 BRENTWOOD AVE,3/14/2016,BARCLAY,EASTERN,12,39.31694487,-76.61013038,1
149,3954 023 032116,3954,23,1717 E 30TH ST,3/21/2016,COLDSTREAM HOMESTEAD MONTEBELLO,NORTHEASTERN,14,39.3251339,-76.59136773,1
150,3971G021 032316,3971G,21,1240 NORTHVIEW ROAD,3/23/2016,ORIGINAL NORTHWOOD,NORTHEASTERN,3,39.34271144,-76.59740535,1
151,4010P005 032316,4010P,5,808 BONAPARTE AVE,3/23/2016,EAST BALTIMORE MIDWAY,EASTERN,12,39.31712807,-76.6026079,1
152,4011B040 031716,4011B,40,2005 KENNEDY AVE,3/17/2016,EAST BALTIMORE MIDWAY,EASTERN,12,39.31324691,-76.60409167,1
153,4013A015 032416,4013A,15,1028 E 20TH ST,3/24/2016,EAST BALTIMORE MIDWAY,EASTERN,12,39.31295693,-76.60439148,1
154,4074A038 031416,4074A,38,3048 MATHEWS ST,3/14/2016,BETTER WAVERLY,NORTHERN,14,39.32560298,-76.60692029,1
155,4114H005 032116,4114H,5,2609 KIRK AVE,3/21/2016,COLDSTREAM HOMESTEAD MONTEBELLO,NORTHEASTERN,14,39.32082352,-76.59904915,1
156,4114H009 031716,4114H,9,2617 KIRK AVE,3/17/2016,COLDSTREAM HOMESTEAD MONTEBELLO,NORTHEASTERN,14,39.32095694,-76.59891494,1
157,4131 011 032116,4131,11,1532 GORSUCH AVE,3/21/2016,COLDSTREAM HOMESTEAD MONTEBELLO,NORTHEASTERN,14,39.3223274,-76.59599805,1
158,4178D034 031716,4178D,34,3227 LYNDALE AVE,3/17/2016,FOUR BY FOUR,NORTHEASTERN,13,39.31628919,-76.57759621,1
159,4178E035 032116,4178E,35,3234 LYNDALE AVE,3/21/2016,FOUR BY FOUR,NORTHEASTERN,13,39.31661792,-76.57735882,1
160,4178F022 032116,4178F,22,3343 ELMORA AVE,3/21/2016,FOUR BY FOUR,NORTHEASTERN,13,39.31573241,-76.5758927,1
161,4178J028 032416,4178J,28,3410 ELMORA AVE,3/24/2016,FOUR BY FOUR,NORTHEASTERN,13,39.31606261,-76.57544613,1
162,4179S071 031716,4179S,71,4101 CHESTERFIELD AVE,3/17/2016,BELAIR-EDISON,NORTHEASTERN,13,39.3150063,-76.56185698,1
163,4429B001 032316,4429B,1,3808 W ROGERS AVE,3/23/2016,ARLINGTON,NORTHWESTERN,5,39.35028425,-76.68663386,1
164,4543A007 032416,4543A,7,5213 LINDEN HEIGHTS AVE,3/24/2016,WOODMERE,NORTHWESTERN,5,39.34434508,-76.6835793,1
165,4544C017 031416,4544C,17,3613 HAYWARD AVE,3/14/2016,ARLINGTON,NORTHWESTERN,5,39.34770543,-76.68176963,1
166,4589 020 031416,4589,20,5102 PEMBRIDGE AVE,3/14/2016,CENTRAL PARK HEIGHTS,NORTHWESTERN,6,39.35064231,-76.67066064,1
167,4626 015 032216,4626,15,3127 SUMTER AVE,3/22/2016,CENTRAL PARK HEIGHTS,NORTHWESTERN,6,39.34192453,-76.66732567,1
168,5138A012N 031816,5138A,012N,1022 E BELVEDERE AVE,3/18/2016,CHINQUAPIN PARK,NORTHERN,4,39.36013075,-76.59880412,1
169,0020 089 062107,20,89,1526 MCKEAN AVE,6/21/2007,SANDTOWN-WINCHESTER,WESTERN,7,39.3057461,-76.64733924,1
170,0020 090 031115,20,90,1524 MCKEAN AVE,3/11/2015,SANDTOWN-WINCHESTER,WESTERN,7,39.30571205,-76.64733747,1
171,0020 092 101512,20,92,1520 MCKEAN AVE,10/15/2012,SANDTOWN-WINCHESTER,WESTERN,7,39.30564069,-76.64733369,1
172,0020 093 111004,20,93,1518 MCKEAN AVE,11/10/2004,SANDTOWN-WINCHESTER,WESTERN,7,39.3056031,-76.64733312,1
173,0021 003 071814,21,3,1506 N MOUNT ST,7/18/2014,SANDTOWN-WINCHESTER,WESTERN,7,39.30578251,-76.64503094,1
174,0021 020 042915,21,20,1701 BAKER ST,4/29/2015,SANDTOWN-WINCHESTER,WESTERN,7,39.30651272,-76.64494139,1
175,0021 021 050115,21,21,1703 BAKER ST,5/1/2015,SANDTOWN-WINCHESTER,WESTERN,7,39.30651089,-76.64498928,1
176,0021 032 020215,21,32,1563 N FULTON AVE,2/2/2015,SANDTOWN-WINCHESTER,WESTERN,7,39.30653612,-76.6458016,1
177,0021 037 020612,21,37,1553 N FULTON AVE,2/6/2012,SANDTOWN-WINCHESTER,WESTERN,7,39.306322,-76.64590631,1
178,0021 038 081613,21,38,1551 N FULTON AVE,8/16/2013,SANDTOWN-WINCHESTER,WESTERN,7,39.30628891,-76.6459042,1
179,0021 039 051206,21,39,1549 N FULTON AVE,5/12/2006,SANDTOWN-WINCHESTER,WESTERN,7,39.30625545,-76.64590203,1
180,0021 040 071509,21,40,1547 N FULTON AVE,7/15/2009,SANDTOWN-WINCHESTER,WESTERN,7,39.30622154,-76.64589982,1
181,0021 042 112112,21,42,1543 N FULTON AVE,11/21/2012,SANDTOWN-WINCHESTER,WESTERN,7,39.30615308,-76.6458954,1
182,5165B033 031616,5165B,33,5215 READY AVE,3/16/2016,WOODBOURNE-MCCABE,NORTHERN,4,39.35340106,-76.60767632,1
183,5173 061 032116,5173,61,545 CHATEAU AVE,3/21/2016,WINSTON-GOVANS,NORTHERN,4,39.35052578,-76.60777105,1
184,5237 199 032416,5237,199,1201 GLENEAGLE ROAD,3/24/2016,RAMBLEWOOD,NORTHEASTERN,4,39.36387614,-76.59321334,1
185,5267O293 032116,5267O,293,1609 PENTWOOD ROAD,3/21/2016,STONEWOOD-PENTWOOD-WINSTON,NORTHEASTERN,3,39.34754167,-76.58711001,1
186,5898H045 031416,5898H,45,4111 EIERMAN AVE,3/14/2016,BELAIR-PARKSIDE,NORTHEASTERN,3,39.32973352,-76.56601089,1
187,5907 026 031516,5907,26,3033 KENYON AVE,3/15/2016,BELAIR-EDISON,NORTHEASTERN,13,39.32430516,-76.56818736,1
188,5911B002 032416,5911B,2,3203 KENTUCKY AVE,3/24/2016,BELAIR-EDISON,NORTHEASTERN,13,39.32250009,-76.56923031,1
189,6043 081 032316,6043,81,5415 SEWARD AVE,3/23/2016,FRANKFORD,NORTHEASTERN,2,39.32813444,-76.53972016,1
190,7085 004 031616,7085,4,3603 6TH ST,3/16/2016,BROOKLYN,SOUTHERN,10,39.23562314,-76.60234252,1
191,7096 015 031816,7096,15,847 PONTIAC AVE,3/18/2016,BROOKLYN,SOUTHERN,10,39.23372994,-76.59846502,1
192,7419D026 031416,7419D,26,2103 SIDNEY AVE,3/14/2016,WESTPORT,SOUTHERN,10,39.26454148,-76.63176232,1
193,7863 004A 031716,7863,004A,1954 SPONSON ST,3/17/2016,MORRELL PARK,SOUTHWESTERN,10,39.26340426,-76.6526376,1
194,7863 006 031616,7863,6,1950 SPONSON ST,3/16/2016,MORRELL PARK,SOUTHWESTERN,10,39.26349672,-76.65277132,1
195,7898 014 031616,7898,14,2034 MAISEL ST,3/16/2016,SAINT PAUL,SOUTHERN,10,39.26773084,-76.64491188,1
196,8091 096 031716,8091,96,412 NORTH BEND ROAD,3/17/2016,WESTGATE,SOUTHWESTERN,8,39.28459796,-76.70936423,1
197,0003 001 040816,3,1,1800 N FULTON AVE,4/8/2016,SANDTOWN-WINCHESTER,WESTERN,7,39.3089469,-76.64671212,1
198,0007 065 041116,7,65,1729 N PAYSON ST,4/11/2016,EASTERWOOD,WESTERN,7,39.30844069,-76.64954668,1
199,0012 001 041116,12,1,1601 N PAYSON ST,4/11/2016,EASTERWOOD,WESTERN,7,39.30667117,-76.64944914,1
200,0012 007 041116,12,7,1633 N PAYSON ST,4/11/2016,EASTERWOOD,WESTERN,7,39.30735235,-76.64948828,1
201,0019 068 041116,19,68,1516 N MONROE ST,4/11/2016,EASTERWOOD,WESTERN,7,39.30573033,-76.64818861,1
202,0049 049 042616,49,49,1930 RIGGS AVE,4/26/2016,BRIDGEVIEW/GREENLAWN,WESTERN,9,39.30105155,-76.6490452,1
203,0082 056 042016,82,56,801 N BRICE ST,4/20/2016,MIDTOWN-EDMONDSON,WESTERN,9,39.29781563,-76.6497414,1
204,0095 053 040116,95,53,1944 HARLEM AVE,4/1/2016,MIDTOWN-EDMONDSON,WESTERN,9,39.29652854,-76.64887642,1
205,0108 046 042816,108,46,1816 EDMONDSON AVE,4/28/2016,HARLEM PARK,WESTERN,9,39.29538042,-76.64664796,1
206,0108 076 041516,108,76,1825 ARUNAH AVE,4/15/2016,HARLEM PARK,WESTERN,9,39.29561665,-76.64685785,1
207,0112 042 041516,112,42,631 N CALHOUN ST,4/15/2016,HARLEM PARK,WESTERN,9,39.29629596,-76.63968895,1
208,0115 049 041116,115,49,1009 BRANTLEY AVE,4/11/2016,HARLEM PARK,WESTERN,9,39.29603325,-76.63454773,1
209,0117 006 041516,117,6,510 N PULASKI ST,4/15/2016,MIDTOWN-EDMONDSON,WESTERN,9,39.29398855,-76.65064574,1
210,0129 113 041516,129,113,912 BENNETT PL,4/15/2016,HARLEM PARK,WESTERN,9,39.29517361,-76.63276258,1
211,0147 031 042916,147,31,323 N PAYSON ST,4/29/2016,PENROSE/FAYETTE STREET OUTREACH,WESTERN,9,39.29248019,-76.64866076,1
212,0149 014 041416,149,14,326 N MOUNT ST,4/14/2016,FRANKLIN SQUARE,WESTERN,9,39.29269773,-76.64426886,1
213,0151 015 042916,151,15,329 N GILMOR ST,4/29/2016,FRANKLIN SQUARE,WESTERN,9,39.29288194,-76.64235071,1
214,0152 026 042216,152,26,1423 W MULBERRY ST,4/22/2016,FRANKLIN SQUARE,WESTERN,9,39.2929171,-76.64061344,1
215,0154 044 042216,154,44,1213 W MULBERRY ST,4/22/2016,POPPLETON,WESTERN,9,39.29300931,-76.63774765,1
216,0163 113 042216,163,113,1804 PENROSE AVE,4/22/2016,FRANKLIN SQUARE,WESTERN,9,39.29152311,-76.64598518,1
217,0194 068 042216,194,68,17 N BRUCE ST,4/22/2016,FRANKLIN SQUARE,WESTERN,9,39.28874565,-76.64439938,1
218,0195 016 042216,195,16,1631 W FAYETTE ST,4/22/2016,FRANKLIN SQUARE,WESTERN,9,39.28940399,-76.64357453,1
219,0195 017 042216,195,17,1633 W FAYETTE ST,4/22/2016,FRANKLIN SQUARE,WESTERN,9,39.28940268,-76.6436145,1
220,0204 070 042116,204,70,2221 BOOTH ST,4/21/2016,BOYD-BOOTH,SOUTHWESTERN,9,39.28729605,-76.65228957,1
221,0213 024 040116,213,24,1520 HOLLINS ST,4/1/2016,UNION SQUARE,SOUTHERN,9,39.2877054,-76.64173162,1
222,0215 046 040416,215,46,18 S CAREY ST,4/4/2016,UNION SQUARE,SOUTHERN,9,39.28800083,-76.63835633,1
223,0222 036 042616,222,36,2152 BOYD ST,4/26/2016,BOYD-BOOTH,SOUTHWESTERN,9,39.28655526,-76.651457,1
224,0265 055 040116,265,55,1314 MCHENRY ST,4/1/2016,NEW SOUTHWEST/MOUNT CLARE,SOUTHERN,9,39.28471497,-76.63835145,1
225,0265 068 040716,265,68,216 S CAREY ST,4/7/2016,NEW SOUTHWEST/MOUNT CLARE,SOUTHERN,9,39.28499357,-76.63818742,1
226,0273 030 050616,273,30,2010 RAMSAY ST,5/6/2016,CARROLLTON RIDGE,SOUTHERN,9,39.28322755,-76.6490279,1
227,0275 001 040516,275,1,300 S FULTON AVE,4/5/2016,CARROLLTON RIDGE,SOUTHERN,9,39.28418793,-76.64518039,1
228,0275 120 041516,275,120,1833 WILHELM ST,4/15/2016,CARROLLTON RIDGE,SOUTHERN,9,39.28357759,-76.64607915,1
229,0276 029 040716,276,29,337 S FULTON AVE,4/7/2016,NEW SOUTHWEST/MOUNT CLARE,SOUTHERN,9,39.28360334,-76.64470408,1
230,0277 006 032916,277,6,310 S GILMOR ST,3/29/2016,NEW SOUTHWEST/MOUNT CLARE,SOUTHERN,9,39.28411051,-76.64236654,1
231,2307A031 040116,2307A,31,1803 N WARWICK AVE,4/1/2016,COPPIN HEIGHTS/ASH-CO-EAST,WESTERN,7,39.30862131,-76.65686715,1
232,2322 029 041216,2322,29,2210 PRESSTMAN ST,4/12/2016,COPPIN HEIGHTS/ASH-CO-EAST,WESTERN,7,39.30527948,-76.65285795,1
233,2345 001 042516,2345,1,801 N BENTALOU ST,4/25/2016,MIDTOWN-EDMONDSON,WESTERN,9,39.29716174,-76.65308236,1
234,2348 006 032816,2348,6,2310 EDMONDSON AVE,3/28/2016,ROSEMONT HOMEOWNERS/TENANTS,WESTERN,9,39.29508507,-76.65369151,1
235,2362 008 041516,2362,8,2528 EDMONDSON AVE,4/15/2016,ROSEMONT HOMEOWNERS/TENANTS,WESTERN,9,39.29495483,-76.65727253,1
236,2400 014 040516,2400,14,1803 BRADDISH AVE,4/5/2016,COPPIN HEIGHTS/ASH-CO-EAST,WESTERN,7,39.3084803,-76.66079512,1
237,2400 015 040516,2400,15,1801 BRADDISH AVE,4/5/2016,COPPIN HEIGHTS/ASH-CO-EAST,WESTERN,7,39.30844148,-76.66079366,1
238,2400 037 040516,2400,37,2662 PRESBURY ST,4/5/2016,COPPIN HEIGHTS/ASH-CO-EAST,WESTERN,7,39.3076309,-76.6604432,1
239,2404 037C 041116,2404,037C,2706 BAKER ST,4/11/2016,COPPIN HEIGHTS/ASH-CO-EAST,WESTERN,7,39.30632074,-76.6611588,1
240,2406 039 040416,2406,39,1805 POPLAR GROVE ST,4/4/2016,NORTHWEST COMMUNITY ACTION,SOUTHWESTERN,7,39.30835182,-76.66545206,1
241,2440 003 050516,2440,3,3104 BAKER ST,5/5/2016,ROSEMONT,SOUTHWESTERN,9,39.30601771,-76.66938455,1
242,2450 035F 033116,2450,035F,1514 N ELLAMONT ST,3/31/2016,ROSEMONT,SOUTHWESTERN,9,39.30481279,-76.67094282,1
243,2701 011 050316,2701,11,4105 GROVELAND AVE,5/3/2016,WEST ARLINGTON,NORTHWESTERN,6,39.34046176,-76.68794491,1
244,2734 016 040416,2734,16,3911 LIBERTY HEIGHTS AVE,4/4/2016,CENTRAL FOREST PARK,NORTHWESTERN,6,39.32747917,-76.68414697,1
245,2738 010 033016,2738,10,3312 OAKFIELD AVE,3/30/2016,CENTRAL FOREST PARK,NORTHWESTERN,6,39.3257185,-76.68683828,1
246,2814 026 050516,2814,26,3610 WINDSOR MILL ROAD,5/5/2016,MOUNT HOLLY,SOUTHWESTERN,7,39.31278926,-76.67961904,1
247,2817 031 050516,2817,31,2201 MOUNT HOLLY ST,5/5/2016,MOUNT HOLLY,SOUTHWESTERN,7,39.31252553,-76.68163151,1
248,2849B002 040816,2849B,2,2902 HAVERFORD ROAD,4/8/2016,WINDSOR HILLS,NORTHWESTERN,6,39.31870332,-76.6877758,1
249,2880 011 041216,2880,11,3706 NORTONIA ROAD,4/12/2016,FAIRMONT,SOUTHWESTERN,7,39.30876452,-76.68080029,1
250,2924 011 042516,2924,11,3400 CARLISLE AVE,4/25/2016,HANLON-LONGWOOD,NORTHWESTERN,7,39.3196302,-76.67495402,1
251,3002 019 033016,3002,19,3115 WALBROOK AVE,3/30/2016,WALBROOK,SOUTHWESTERN,7,39.30977953,-76.66999949,1
252,3024 034 042516,3024,34,2848 CLIFTON AVE,4/25/2016,PANWAY/BRADDISH AVENUE,WESTERN,7,39.3115999,-76.66572394,1
253,3057 010 033116,3057,10,2307 GARRISON BLVD,3/31/2016,HANLON-LONGWOOD,NORTHWESTERN,7,39.31470432,-76.67643017,1
254,3061A004 040616,3061A,4,3340 PIEDMONT AVE,4/6/2016,HANLON-LONGWOOD,NORTHWESTERN,7,39.31649632,-76.67441357,1
255,3061A004A 040616,3061A,004A,3338 PIEDMONT AVE,4/6/2016,HANLON-LONGWOOD,NORTHWESTERN,7,39.31649816,-76.67434522,1
256,0279 087 040716,279,87,324 S PARRISH ST,4/7/2016,NEW SOUTHWEST/MOUNT CLARE,SOUTHERN,9,39.28373364,-76.64158819,1
257,0304 044 050316,304,44,2201 DRUID HILL AVE,5/3/2016,DRUID HEIGHTS,CENTRAL,7,39.3092571,-76.63724485,1
258,0328 041 040416,328,41,539 ROBERT ST,4/4/2016,DRUID HEIGHTS,CENTRAL,11,39.30587125,-76.6351795,1
259,0363 022 040616,363,22,1531 DRUID HILL AVE,4/6/2016,UPTON,CENTRAL,11,39.30439456,-76.63112941,1
260,0377 015 040616,377,15,1430 MCCULLOH ST,4/6/2016,UPTON,CENTRAL,11,39.30380096,-76.62977548,1
261,0377 036 040516,377,36,1403 DRUID HILL AVE,4/5/2016,UPTON,CENTRAL,11,39.30306203,-76.62947255,1
262,0391 045 033116,391,45,231 E NORTH AVE,3/31/2016,GREENMOUNT WEST,EASTERN,12,39.31086903,-76.61257977,1
263,0392 007 042716,392,7,1312 MYRTLE AVE,4/27/2016,UPTON,CENTRAL,11,39.29899658,-76.63297647,1
264,0431 059 040616,431,59,1137 MYRTLE AVE,4/6/2016,UPTON,CENTRAL,11,39.2979297,-76.63092678,1
265,0564 007 040416,564,7,118 W MULBERRY ST,4/4/2016,DOWNTOWN,CENTRAL,11,39.29417156,-76.61804071,1
266,0698 072 040416,698,72,2015 ASHTON ST,4/4/2016,CARROLLTON RIDGE,SOUTHERN,9,39.28241212,-76.64898299,1
267,0701 046 040416,701,46,2241 WILKENS AVE,4/4/2016,CARROLLTON RIDGE,SOUTHWESTERN,9,39.28017559,-76.65141381,1
268,0708 103 040716,708,103,407 S PARRISH ST,4/7/2016,NEW SOUTHWEST/MOUNT CLARE,SOUTHERN,9,39.28293103,-76.64117073,1
269,0709 018 042516,709,18,412 S CALHOUN ST,4/25/2016,NEW SOUTHWEST/MOUNT CLARE,SOUTHERN,9,39.28300864,-76.63948115,1
270,0758 080 042216,758,80,914 S CAREY ST,4/22/2016,WASHINGTON VILLAGE/PIGTOWN,SOUTHERN,10,39.28174038,-76.63713404,1
271,0768 122 042116,768,122,1273 SARGEANT ST,4/21/2016,WASHINGTON VILLAGE/PIGTOWN,SOUTHERN,10,39.28114672,-76.63545255,1
272,0780 116 041416,780,116,1154 WARD ST,4/14/2016,WASHINGTON VILLAGE/PIGTOWN,SOUTHERN,10,39.28168498,-76.63323791,1
273,0801 055 042216,801,55,1143 NANTICOKE ST,4/22/2016,WASHINGTON VILLAGE/PIGTOWN,SOUTHERN,10,39.28031992,-76.63103961,1
274,0811 007 040416,811,7,813 W CROSS ST,4/4/2016,WASHINGTON VILLAGE/PIGTOWN,SOUTHERN,10,39.28001111,-76.62909244,1
275,0848 020 040716,848,20,423 SCOTT ST,4/7/2016,WASHINGTON VILLAGE/PIGTOWN,SOUTHERN,10,39.28331169,-76.62863618,1
276,0856A008 040716,0856A,8,614 SCOTT ST,4/7/2016,WASHINGTON VILLAGE/PIGTOWN,SOUTHERN,10,39.28174401,-76.62902371,1
277,0916 075 040616,916,75,103 W HENRIETTA ST,4/6/2016,SHARP-LEADENHALL,SOUTHERN,11,39.27875756,-76.61605725,1
278,0049 032 022709,49,32,1105 APPLETON ST,2/27/2009,MIDTOWN-EDMONDSON,WESTERN,9,39.30131081,-76.64827516,1
279,0049 035 052410,49,35,1100 APPLETON ST,5/24/2010,BRIDGEVIEW/GREENLAWN,WESTERN,9,39.30121515,-76.64876829,1
280,0049 037 083011,49,37,1104 APPLETON ST,8/30/2011,BRIDGEVIEW/GREENLAWN,WESTERN,9,39.30128983,-76.64877681,1
281,0049 038 080811,49,38,1106 APPLETON ST,8/8/2011,BRIDGEVIEW/GREENLAWN,WESTERN,9,39.30132659,-76.64877972,1
282,0049 040 042310,49,40,1110 APPLETON ST,4/23/2010,BRIDGEVIEW/GREENLAWN,WESTERN,9,39.30140373,-76.64878583,1
283,0049 041 091510,49,41,1112 APPLETON ST,9/15/2010,BRIDGEVIEW/GREENLAWN,WESTERN,9,39.30155464,-76.64894948,1
284,1096 006 050616,1096,6,428 E LAFAYETTE AVE,5/6/2016,GREENMOUNT WEST,EASTERN,12,39.31027783,-76.60984567,1
285,1096 036 040816,1096,36,411 E NORTH AVE,4/8/2016,GREENMOUNT WEST,EASTERN,12,39.31103184,-76.61050714,1
286,1102 011 041316,1102,11,1821 N BOND ST,4/13/2016,OLIVER,EASTERN,12,39.31112489,-76.59673261,1
287,1108 061 041016,1108,61,1700 N DALLAS ST,4/10/2016,OLIVER,EASTERN,12,39.3098247,-76.59776059,1
288,1109 005 041316,1109,5,1737 N BOND ST,4/13/2016,OLIVER,EASTERN,12,39.31030866,-76.5966856,1
289,1109 070 042216,1109,70,1609 E LAFAYETTE AVE,4/22/2016,OLIVER,EASTERN,12,39.31041117,-76.59629156,1
290,1110 008 041116,1110,8,311 E LANVALE ST,4/11/2016,GREENMOUNT WEST,EASTERN,12,39.30873249,-76.61144998,1
291,1110 009 040716,1110,9,313 E LANVALE ST,4/7/2016,GREENMOUNT WEST,EASTERN,12,39.30873463,-76.61139581,1
292,1111 059 042216,1111,59,407 PITMAN PL,4/22/2016,GREENMOUNT WEST,EASTERN,12,39.30829551,-76.6104507,1
293,1121 014 042216,1121,14,1526 HOLBROOK ST,4/22/2016,OLIVER,EASTERN,12,39.30772403,-76.60340306,1
294,1125 011 042916,1125,11,1424 E OLIVER ST,4/29/2016,OLIVER,EASTERN,12,39.30750494,-76.59874573,1
295,1132 016 032816,1132,16,1418 AISQUITH ST,3/28/2016,OLIVER,EASTERN,12,39.30654158,-76.60256309,1
296,1132 017 042216,1132,17,1420 AISQUITH ST,4/22/2016,OLIVER,EASTERN,12,39.30657804,-76.60256521,1
297,1138 032 042216,1138,32,1627 E OLIVER ST,4/22/2016,OLIVER,EASTERN,12,39.30725606,-76.59557684,1
298,1143 036 041416,1143,36,1302 VALLEY ST,4/14/2016,JOHNSTON SQUARE,EASTERN,12,39.3055219,-76.6053972,1
299,1144 007 041416,1144,7,1313 VALLEY ST,4/14/2016,JOHNSTON SQUARE,EASTERN,12,39.30546602,-76.60488453,1
300,1145 032 041916,1145,32,1336 AISQUITH ST,4/19/2016,OLIVER,EASTERN,12,39.30581832,-76.60250549,1
301,1145 057 050416,1145,57,1319 ENSOR ST,5/4/2016,OLIVER,EASTERN,12,39.30563919,-76.60338443,1
302,1148 005 042216,1148,5,1309 N CENTRAL AVE,4/22/2016,OLIVER,EASTERN,12,39.30544275,-76.60024885,1
303,1148 008 042216,1148,8,1315 N CENTRAL AVE,4/22/2016,OLIVER,EASTERN,12,39.305588,-76.60025804,1
304,1160 023 042216,1160,23,1201 E PRESTON ST,4/22/2016,OLIVER,EASTERN,12,39.30491325,-76.60163866,1
305,5930 053 040416,5930,53,4230 SHELDON AVE,4/4/2016,BELAIR-EDISON,NORTHEASTERN,2,39.32826673,-76.56386133,1
306,5942 009 040516,5942,9,4617 MANNASOTA AVE,4/5/2016,FRANKFORD,NORTHEASTERN,2,39.33112495,-76.55721989,1
307,5974 016 032916,5974,16,5103 FRANKFORD AVE,3/29/2016,FRANKFORD,NORTHEASTERN,2,39.32722735,-76.54164007,1
308,6005B043 050216,6005B,43,4202 HAMILTON AVE,5/2/2016,FRANKFORD,NORTHEASTERN,2,39.34212951,-76.54482531,1
309,6005C003C 041816,6005C,003C,4526 HAZELWOOD AVE,4/18/2016,FRANKFORD,NORTHEASTERN,2,39.33920441,-76.53881209,1
310,6122 074 040516,6122,74,4629 BOWLEYS LANE,4/5/2016,PARKSIDE,NORTHEASTERN,2,39.32449427,-76.55442192,1
311,6158A008 050616,6158A,8,515 N CLINTON ST,5/6/2016,ELLWOOD PARK/MONUMENT,SOUTHEASTERN,13,39.29755889,-76.57044181,1
312,1548 036 040716,1548,36,1721 E BIDDLE ST,4/7/2016,MIDDLE EAST,EASTERN,12,39.30414916,-76.59307054,1
313,1553 067 042216,1553,67,1107 N COLLINGTON AVE,4/22/2016,MIDDLE EAST,EASTERN,13,39.30396181,-76.58673184,1
314,1553 069 042116,1553,69,1103 N COLLINGTON AVE,4/21/2016,MIDDLE EAST,EASTERN,13,39.30389634,-76.58672793,1
315,1555 003 042116,1555,3,1104 N MILTON AVE,4/21/2016,BIDDLE STREET,EASTERN,13,39.304087,-76.58288895,1
316,1556 001 042016,1556,1,1101 N MILTON AVE,4/20/2016,BIDDLE STREET,EASTERN,13,39.30381528,-76.58232321,1
317,1556 048 041016,1556,48,2510 E CHASE ST,4/10/2016,BIDDLE STREET,EASTERN,13,39.30390892,-76.58181365,1
318,1558 012H 033016,1558,012H,2717 E BIDDLE ST,3/30/2016,BIDDLE STREET,EASTERN,13,39.30469276,-76.57927387,1
319,1570 017 041516,1570,17,2233 E CHASE ST,4/15/2016,MIDDLE EAST,EASTERN,13,39.30336215,-76.58601419,1
320,1573 012 040916,1573,12,1039 N MILTON AVE,4/9/2016,BIDDLE STREET,EASTERN,13,39.30328948,-76.58233243,1
321,1590 009 040416,1590,9,917 N PATTERSON PARK AVE,4/4/2016,MILTON-MONTFORD,EASTERN,13,39.30127766,-76.58503241,1
322,1592 061 040416,1592,61,915 N ROSE ST,4/4/2016,MILTON-MONTFORD,EASTERN,13,39.30156182,-76.58155944,1
323,1606 001 042016,1606,1,803 N COLLINGTON AVE,4/20/2016,MIDDLE EAST,EASTERN,13,39.29988467,-76.5864891,1
324,1607 010 040416,1607,10,819 N PATTERSON PARK AVE,4/4/2016,MILTON-MONTFORD,EASTERN,13,39.30025467,-76.58496784,1
325,1607 034 042216,1607,34,2321 ASHLAND AVE,4/22/2016,MILTON-MONTFORD,EASTERN,13,39.30070757,-76.58423281,1
326,1610 057 041316,1610,57,800 N GLOVER ST,4/13/2016,MADISON-EASTEND,EASTERN,13,39.30030682,-76.58043837,1
327,1612 058 040616,1612,58,814 N LINWOOD AVE,4/6/2016,MADISON-EASTEND,EASTERN,13,39.30049055,-76.57698665,1
328,1613 021 041016,1613,21,2918 E MADISON ST,4/10/2016,MADISON-EASTEND,EASTERN,13,39.30034111,-76.5761614,1
329,1613 022 042216,1613,22,2920 E MADISON ST,4/22/2016,MADISON-EASTEND,EASTERN,13,39.30034297,-76.57611626,1
330,1621 010 041516,1621,10,719 N CHESTER ST,4/15/2016,MIDDLE EAST,EASTERN,13,39.29909384,-76.5876276,1
331,1623 012 042516,1623,12,2329 E MADISON ST,4/25/2016,MILTON-MONTFORD,EASTERN,13,39.29965944,-76.58396869,1
332,1623 028 042516,1623,28,743 N PATTERSON PARK AVE,4/25/2016,MILTON-MONTFORD,EASTERN,13,39.29965149,-76.58492426,1
333,1624 006 050216,1624,6,2410 E MONUMENT ST,5/2/2016,MILTON-MONTFORD,EASTERN,13,39.29898449,-76.58334552,1
334,1626 073 042916,1626,73,708 N GLOVER ST,4/29/2016,MADISON-EASTEND,EASTERN,13,39.29937993,-76.58039225,1
335,1628 064 042516,1628,64,702 N STREEPER ST,4/25/2016,MADISON-EASTEND,EASTERN,13,39.29939104,-76.57756127,1
336,1629 029 040516,1629,29,2924 E MONUMENT ST,4/5/2016,MADISON-EASTEND,EASTERN,13,39.29928737,-76.57581212,1
337,1639 038 042216,1639,38,610 N MONTFORD AVE,4/22/2016,MCELDERRY PARK,SOUTHEASTERN,13,39.2982033,-76.58393831,1
338,1642 083 033016,1642,83,626 N GLOVER ST,3/30/2016,MCELDERRY PARK,SOUTHEASTERN,13,39.2985928,-76.58033985,1
339,1644 047 040716,1644,47,628 N STREEPER ST,4/7/2016,MCELDERRY PARK,SOUTHEASTERN,13,39.2985287,-76.57750443,1
340,1647 002E 041916,1647,002E,3111 E MONUMENT ST,4/19/2016,ELLWOOD PARK/MONUMENT,SOUTHEASTERN,13,39.2990098,-76.57341514,1
341,1653 028 050416,1653,28,522 N PATTERSON PARK AVE,5/4/2016,CARE,EASTERN,13,39.29714082,-76.58525308,1
342,1653 034 041116,1653,34,2251 MCELDERRY ST,4/11/2016,CARE,EASTERN,13,39.29742222,-76.5852431,1
343,1653 036 041116,1653,36,2247 MCELDERRY ST,4/11/2016,CARE,EASTERN,13,39.29741294,-76.58534326,1
344,1653 054 041116,1653,54,2211 MCELDERRY ST,4/11/2016,CARE,EASTERN,13,39.29741603,-76.58623678,1
345,1653 055 041116,1653,55,2209 MCELDERRY ST,4/11/2016,CARE,EASTERN,13,39.29741069,-76.5862786,1
346,1653 056 041116,1653,56,2207 MCELDERRY ST,4/11/2016,CARE,EASTERN,13,39.29741716,-76.58632006,1
347,1655 039 042516,1655,39,540 N MILTON AVE,4/25/2016,MCELDERRY PARK,SOUTHEASTERN,13,39.29761467,-76.58248129,1
348,1660 025 050316,1660,25,2931 MCELDERRY ST,5/3/2016,ELLWOOD PARK/MONUMENT,SOUTHEASTERN,13,39.2978148,-76.57546308,1
349,1660 045 041416,1660,45,529 N CURLEY ST,4/14/2016,ELLWOOD PARK/MONUMENT,SOUTHEASTERN,13,39.29757089,-76.57561071,1
350,1660 056 041516,1660,56,518 N CURLEY ST,4/15/2016,ELLWOOD PARK/MONUMENT,SOUTHEASTERN,13,39.29738063,-76.57601211,1
351,1674 016 040716,1674,16,431 N LUZERNE AVE,4/7/2016,MCELDERRY PARK,SOUTHEASTERN,13,39.29638186,-76.58047132,1
352,1713 068 041916,1713,68,155 N CURLEY ST,4/19/2016,PATTERSON PARK NEIGHBORHOOD,SOUTHEASTERN,1,39.29438319,-76.57543324,1
353,1732 029 042216,1732,29,22 N EAST AVE,4/22/2016,PATTERSON PARK NEIGHBORHOOD,SOUTHEASTERN,1,39.29311634,-76.57270022,1
354,1765 077 041416,1765,77,311 S WASHINGTON ST,4/14/2016,UPPER FELLS POINT,SOUTHEASTERN,1,39.28734769,-76.58865797,1
355,2121A008 040116,2121A,8,3328 STRICKLAND ST,4/1/2016,IRVINGTON,SOUTHWESTERN,8,39.2777235,-76.67249882,1
356,2140 040 050216,2140,40,429 EAST LYNNE AVE,5/2/2016,MILLHILL,SOUTHWESTERN,9,39.28031867,-76.65861789,1
357,2165 022 050316,2165,22,17 N CATHERINE ST,5/3/2016,SHIPLEY HILL,SOUTHWESTERN,9,39.28839577,-76.65628533,1
358,2171 076 041216,2171,76,12 S CATHERINE ST,4/12/2016,SHIPLEY HILL,SOUTHWESTERN,9,39.28712477,-76.656379,1
359,2201 036 050416,2201,36,2324 LAURETTA AVE,5/4/2016,ROSEMONT HOMEOWNERS/TENANTS,WESTERN,9,39.29428598,-76.65393471,1
360,2213B026D 040116,2213B,026D,2609 EDMONDSON AVE,4/1/2016,ROSEMONT HOMEOWNERS/TENANTS,WESTERN,9,39.29432942,-76.65978202,1
361,2230J003 050416,2230J,3,5 S ABINGTON AVE,5/4/2016,CARROLL-SOUTH HILTON,SOUTHWESTERN,9,39.28561149,-76.67090256,1
362,2230L052 033016,2230L,52,14 S MOUNT OLIVET LANE,3/30/2016,CARROLL-SOUTH HILTON,SOUTHWESTERN,9,39.28547888,-76.66839978,1
363,2243B043 042216,2243B,43,144 PALORMO AVE,4/22/2016,SAINT JOSEPHS,SOUTHWESTERN,8,39.28346594,-76.6753731,1
364,2244A039 042016,2244A,39,3531 OLD FREDERICK ROAD,4/20/2016,IRVINGTON,SOUTHWESTERN,8,39.2825992,-76.67605821,1
365,2253 040 042116,2253,40,49 S CULVER ST,4/21/2016,SAINT JOSEPHS,SOUTHWESTERN,8,39.28514681,-76.67793525,1
366,2284 015 033116,2284,15,506 N EDGEWOOD ST,3/31/2016,ALLENDALE,SOUTHWESTERN,8,39.29299147,-76.67574181,1
367,2304 017 042716,2304,17,1818 N BENTALOU ST,4/27/2016,COPPIN HEIGHTS/ASH-CO-EAST,WESTERN,7,39.30903115,-76.65437014,1
368,1161 037 042516,1161,37,1210 N EDEN ST,4/25/2016,OLIVER,EASTERN,12,39.30442045,-76.59981549,1
369,1162 041 033116,1162,41,1206 N CAROLINE ST,3/31/2016,OLIVER,EASTERN,12,39.30446161,-76.59830918,1
370,1163 023 041116,1163,23,1214 N BOND ST,4/11/2016,OLIVER,EASTERN,12,39.3048639,-76.59687953,1
371,1164A020 040616,1164A,20,1205 N BOND ST,4/6/2016,OLIVER,EASTERN,12,39.30440153,-76.59630012,1
372,1184 017 041816,1184,17,932 E EAGER ST,4/18/2016,JOHNSTON SQUARE,EASTERN,12,39.30167368,-76.60393509,1
373,1191 011 042716,1191,11,1025 N CAROLINE ST,4/27/2016,GAY STREET,EASTERN,12,39.30241339,-76.59757491,1
374,1283 013 042016,1283,13,327 N GAY ST,4/20/2016,JONESTOWN,SOUTHEASTERN,12,39.29367649,-76.60705783,1
375,1283 014 042016,1283,14,325 N GAY ST,4/20/2016,JONESTOWN,SOUTHEASTERN,12,39.29364345,-76.60711307,1
376,1284 014 032916,1284,14,343 N GAY ST,3/29/2016,JONESTOWN,SOUTHEASTERN,12,39.29410505,-76.60654283,1
377,1343 041 032916,1343,41,1413 E FAIRMOUNT AVE,3/29/2016,WASHINGTON HILL,SOUTHEASTERN,12,39.29197278,-76.59804905,1
378,1392 007 042516,1392,7,117 S CENTRAL AVE,4/25/2016,WASHINGTON HILL,SOUTHEASTERN,12,39.28973043,-76.59919773,1
379,1428 035 042016,1428,35,316 S BROADWAY,4/20/2016,FELLS POINT,SOUTHEASTERN,12,39.28704457,-76.59400468,1
380,1435 044 040816,1435,44,1617 BANK ST,4/8/2016,FELLS POINT,SOUTHEASTERN,1,39.28631546,-76.59465993,1
381,1447 079 033016,1447,79,1804 E LAFAYETTE AVE,3/30/2016,BROADWAY EAST,EASTERN,12,39.31092597,-76.59273314,1
382,1448 061 040616,1448,61,1835 N WOLFE ST,4/6/2016,BROADWAY EAST,EASTERN,12,39.31183423,-76.59145669,1
383,1454 086 042816,1454,86,1821 N PORT ST,4/28/2016,BROADWAY EAST,EASTERN,13,39.31176201,-76.5836134,1
384,1457 021 042516,1457,21,1807 E LAFAYETTE AVE,4/25/2016,BROADWAY EAST,EASTERN,12,39.31055426,-76.59265935,1
385,1463 056 042516,1463,56,1703 N BRADFORD ST,4/25/2016,BROADWAY EAST,EASTERN,13,39.31012378,-76.58492591,1
386,1468 021 033016,1468,21,1641 N WOLFE ST,3/30/2016,BROADWAY EAST,EASTERN,12,39.30954161,-76.59132651,1
387,0055C064 021315,0055C,64,1102 N CARROLLTON AVE,2/13/2015,SANDTOWN-WINCHESTER,WESTERN,9,39.30135319,-76.6376802,1
388,0055D005 103015,0055D,5,1036 N ARLINGTON AVE,10/30/2015,SANDTOWN-WINCHESTER,WESTERN,9,39.3014815,-76.63623707,1
389,0055D011 072414,0055D,11,1106 N FREMONT AVE,7/24/2014,SANDTOWN-WINCHESTER,WESTERN,9,39.30202685,-76.63638775,1
390,0055D023 010507,0055D,23,1107 WINCHESTER ST,1/5/2007,SANDTOWN-WINCHESTER,WESTERN,9,39.30233375,-76.63688065,1
391,0055D026 040705,0055D,26,1113 WINCHESTER ST,4/7/2005,SANDTOWN-WINCHESTER,WESTERN,9,39.30233129,-76.63702569,1
392,0055D029 121911,0055D,29,1157 N CARROLLTON AVE,12/19/2011,SANDTOWN-WINCHESTER,WESTERN,9,39.3023891,-76.63726697,1
393,0055D033 020508,0055D,33,1149 N CARROLLTON AVE,2/5/2008,SANDTOWN-WINCHESTER,WESTERN,9,39.30223841,-76.63722955,1
394,0055D034 073108,0055D,34,1147 N CARROLLTON AVE,7/31/2008,SANDTOWN-WINCHESTER,WESTERN,9,39.30220241,-76.63722122,1
395,0055D037 081412,0055D,37,1141 N CARROLLTON AVE,8/14/2012,SANDTOWN-WINCHESTER,WESTERN,9,39.30208855,-76.63721355,1
396,0055D040 101813,0055D,40,1135 N CARROLLTON AVE,10/18/2013,SANDTOWN-WINCHESTER,WESTERN,9,39.3019722,-76.63720665,1
397,0055D042 123108,0055D,42,1131 N CARROLLTON AVE,12/31/2008,SANDTOWN-WINCHESTER,WESTERN,9,39.30189635,-76.63720196,1
398,0055D044 122608,0055D,44,1127 N CARROLLTON AVE,12/26/2008,SANDTOWN-WINCHESTER,WESTERN,9,39.3018186,-76.63719727,1
399,1477 012 050416,1477,12,1523 N BROADWAY,5/4/2016,BROADWAY EAST,EASTERN,12,39.3080662,-76.59448595,1
400,1477 013 050416,1477,13,1525 N BROADWAY,5/4/2016,BROADWAY EAST,EASTERN,12,39.30810754,-76.59448854,1
401,1477 014 042816,1477,14,1527 N BROADWAY,4/28/2016,BROADWAY EAST,EASTERN,12,39.30814858,-76.5944911,1
402,1479 026 042216,1479,26,1921 E FEDERAL ST,4/22/2016,BROADWAY EAST,EASTERN,12,39.30851134,-76.59072267,1
403,1479 055 041016,1479,55,1910 E OLIVER ST,4/10/2016,BROADWAY EAST,EASTERN,12,39.30782754,-76.59068067,1
404,1496 025 042616,1496,25,1428 N GAY ST,4/26/2016,BROADWAY EAST,EASTERN,12,39.3071261,-76.59083385,1
405,1505 019 042016,1505,19,1402 N LUZERNE AVE,4/20/2016,BEREA,EASTERN,13,39.30707761,-76.58165773,1
406,1522 071 050316,1522,71,2610 GROGAN AVE,5/3/2016,BEREA,EASTERN,13,39.30657798,-76.58071989,1
407,1529 047 042616,1529,47,1723 E PRESTON ST,4/26/2016,BROADWAY EAST,EASTERN,12,39.30518955,-76.5937743,1
408,1531 001 050416,1531,1,1800 E BIDDLE ST,5/4/2016,BROADWAY EAST,EASTERN,12,39.30457454,-76.59243531,1
409,1536 009 042716,1536,9,2317 E PRESTON ST,4/27/2016,BROADWAY EAST,EASTERN,13,39.30556633,-76.58454433,1
410,1536 070 042716,1536,70,1203 N PATTERSON PARK AVE,4/27/2016,BROADWAY EAST,EASTERN,13,39.30480533,-76.58523539,1
411,1537 015 042716,1537,15,2438 E BIDDLE ST,4/27/2016,BROADWAY EAST,EASTERN,13,39.30492726,-76.58298056,1
412,1537 051 042716,1537,51,1225 N MONTFORD AVE,4/27/2016,BROADWAY EAST,EASTERN,13,39.30537865,-76.5838246,1
413,1539 043 041516,1539,43,1237 N LUZERNE AVE,4/15/2016,BEREA,EASTERN,13,39.30573546,-76.58105939,1
414,1548 034 040716,1548,34,1717 E BIDDLE ST,4/7/2016,MIDDLE EAST,EASTERN,12,39.30414527,-76.59317282,1
415,1548 035 040716,1548,35,1719 E BIDDLE ST,4/7/2016,MIDDLE EAST,EASTERN,12,39.3041467,-76.59312216,1
416,0058 074 062708,58,74,1013 APPLETON ST,6/27/2008,MIDTOWN-EDMONDSON,WESTERN,9,39.30037464,-76.64822446,1
417,0058 075 111308,58,75,1015 APPLETON ST,11/13/2008,MIDTOWN-EDMONDSON,WESTERN,9,39.30041119,-76.64822658,1
418,0058 086 070314,58,86,1014 APPLETON ST,7/3/2014,MIDTOWN-EDMONDSON,WESTERN,9,39.30038818,-76.64872258,1
419,0058 092 030410,58,92,1026 APPLETON ST,3/4/2010,MIDTOWN-EDMONDSON,WESTERN,9,39.30060623,-76.64873478,1
420,0058 093 073106,58,93,1028 APPLETON ST,7/31/2006,MIDTOWN-EDMONDSON,WESTERN,9,39.30064259,-76.64873683,1
421,0058 094 121510,58,94,1030 APPLETON ST,12/15/2010,MIDTOWN-EDMONDSON,WESTERN,9,39.30067871,-76.64873881,1
422,0059 002 010308,59,2,1002 N FULTON AVE,1/3/2008,SANDTOWN-WINCHESTER,WESTERN,9,39.30002355,-76.64620032,1
423,0059 004 010308,59,4,1006 N FULTON AVE,1/3/2008,SANDTOWN-WINCHESTER,WESTERN,9,39.30011146,-76.6462039,1
424,0059 009 062609,59,9,1016 N FULTON AVE,6/26/2009,SANDTOWN-WINCHESTER,WESTERN,9,39.30032723,-76.64621265,1
425,0059 010 041015,59,10,1018 N FULTON AVE,4/10/2015,SANDTOWN-WINCHESTER,WESTERN,9,39.30037484,-76.64621459,1
426,0059 011 112614,59,11,1020 N FULTON AVE,11/26/2014,SANDTOWN-WINCHESTER,WESTERN,9,39.30041388,-76.64621617,1
427,0059 019 121313,59,19,1801 RIGGS AVE,12/13/2013,SANDTOWN-WINCHESTER,WESTERN,9,39.30074133,-76.64647062,1
428,0059 022 051700,59,22,1807 RIGGS AVE,5/17/2000,SANDTOWN-WINCHESTER,WESTERN,9,39.30073364,-76.64662509,1
429,0059 024 050814,59,24,1811 RIGGS AVE,5/8/2014,SANDTOWN-WINCHESTER,WESTERN,9,39.30073031,-76.64672791,1
430,0059 027 110707,59,27,1817 RIGGS AVE,11/7/2007,SANDTOWN-WINCHESTER,WESTERN,9,39.30071856,-76.64705548,1
431,0059 031 022008,59,31,1825 RIGGS AVE,2/20/2008,SANDTOWN-WINCHESTER,WESTERN,9,39.30071114,-76.64726705,1
432,0059 033 062609,59,33,1829 RIGGS AVE,6/26/2009,SANDTOWN-WINCHESTER,WESTERN,9,39.30070741,-76.64737349,1
433,3065 014 042716,3065,14,3400 ALTO ROAD,4/27/2016,HANLON-LONGWOOD,NORTHWESTERN,7,39.31758529,-76.67478324,1
434,3066C016 040516,3066C,16,3034 GWYNNS FALLS PKWY,4/5/2016,HANLON-LONGWOOD,NORTHWESTERN,7,39.31472296,-76.66936392,1
435,3101 003 040716,3101,3,3407 CALLAWAY AVE,4/7/2016,ASHBURTON,NORTHWESTERN,6,39.32698689,-76.67812231,1
436,3103 008 042116,3103,8,3409 GRANTLEY ROAD,4/21/2016,ASHBURTON,NORTHWESTERN,6,39.32672468,-76.67565213,1
437,3107 015 042816,3107,15,3211 DORCHESTER ROAD,4/28/2016,ASHBURTON,NORTHWESTERN,7,39.32546125,-76.67014153,1
438,3183 003 041416,3183,3,4126 REISTERSTOWN ROAD,4/14/2016,TOWANDA-GRANTLEY,NORTHWESTERN,6,39.33558893,-76.6657034,1
439,3185 057 032816,3185,57,2914 BOARMAN AVE,3/28/2016,TOWANDA-GRANTLEY,NORTHWESTERN,6,39.3371956,-76.6702218,1
440,3186 032 033016,3186,32,2904 GRANTLEY AVE,3/30/2016,TOWANDA-GRANTLEY,NORTHWESTERN,6,39.33719953,-76.66829301,1
441,3204 010 041316,3204,10,2218 W NORTH AVE,4/13/2016,MONDAWMIN,WESTERN,7,39.30992435,-76.65338748,1
442,3205 007 041116,3205,7,1912 N PULASKI ST,4/11/2016,MONDAWMIN,WESTERN,7,39.31037168,-76.65158792,1
443,3210 066 040816,3210,66,2016 N MONROE ST,4/8/2016,MONDAWMIN,WESTERN,7,39.31156658,-76.64851198,1
444,3210 090 041116,3210,90,2011 N PAYSON ST,4/11/2016,MONDAWMIN,WESTERN,7,39.31140981,-76.64976339,1
445,3211 048 041116,3211,48,2009 CLIFTON AVE,4/11/2016,MONDAWMIN,WESTERN,7,39.31166217,-76.65060975,1
446,3212 062 041116,3212,62,2006 N PULASKI ST,4/11/2016,MONDAWMIN,WESTERN,7,39.31118868,-76.65162999,1
447,3213 024 050616,3213,24,2015 N BENTALOU ST,5/6/2016,MONDAWMIN,WESTERN,7,39.31103627,-76.65394783,1
448,3213 026 041116,3213,26,2019 N BENTALOU ST,4/11/2016,MONDAWMIN,WESTERN,7,39.31113904,-76.65393988,1
449,3252 052 041116,3252,52,2312 ANOKA AVE,4/11/2016,LIBERTY SQUARE,NORTHWESTERN,7,39.32156841,-76.65620952,1
450,3262C052 042716,3262C,52,3209 LEIGHTON AVE,4/27/2016,BURLEITH-LEIGHTON,NORTHWESTERN,7,39.31808078,-76.65936634,1
451,3347D005 042716,3347D,5,2608 LOYOLA SOUTHWAY,4/27/2016,GREENSPRING,NORTHERN,6,39.3373966,-76.66128015,1
452,3347E026 040516,3347E,26,2605 PARK HEIGHTS TERR,4/5/2016,GREENSPRING,NORTHERN,6,39.33836844,-76.66155806,1
453,0059 071 042612,59,71,1015 MCKEAN AVE,4/26/2012,SANDTOWN-WINCHESTER,WESTERN,9,39.30046857,-76.64659022,1
454,0059 075 052510,59,75,1020 MCKEAN AVE,5/25/2010,SANDTOWN-WINCHESTER,WESTERN,9,39.30056324,-76.64704575,1
455,0059 078 041912,59,78,1014 MCKEAN AVE,4/19/2012,SANDTOWN-WINCHESTER,WESTERN,9,39.30045216,-76.64703931,1
456,0059 082 011113,59,82,1006 MCKEAN AVE,1/11/2013,SANDTOWN-WINCHESTER,WESTERN,9,39.30030573,-76.64703059,1
457,0060 004 022608,60,4,1006 N MOUNT ST,2/26/2008,SANDTOWN-WINCHESTER,WESTERN,9,39.3001551,-76.64470111,1
458,0060 005 091010,60,5,1008 N MOUNT ST,9/10/2010,SANDTOWN-WINCHESTER,WESTERN,9,39.30019518,-76.64470351,1
459,0060 049 082712,60,49,1021 N FULTON AVE,8/27/2012,SANDTOWN-WINCHESTER,WESTERN,9,39.30039486,-76.6455448,1
460,0060 066 031414,60,66,1704 MOSHER ST,3/14/2014,SANDTOWN-WINCHESTER,WESTERN,9,39.30011591,-76.64497154,1
461,3421 037 040516,3421,37,2437 MADISON AVE,4/5/2016,RESERVOIR HILL,CENTRAL,7,39.31364814,-76.63833954,1
462,3445 015 040516,3445,15,2228 CALLOW AVE,4/5/2016,RESERVOIR HILL,CENTRAL,7,39.31351458,-76.63170684,1
463,3461 018 040516,3461,18,2412 LAKEVIEW AVE,4/5/2016,RESERVOIR HILL,CENTRAL,7,39.31508498,-76.63295977,1
464,3611 018 041816,3611,18,2206 N CHARLES ST,4/18/2016,OLD GOUCHER,NORTHERN,12,39.31446774,-76.61715887,1
465,3823 025 041516,3823,25,329 E 24TH ST,4/15/2016,BARCLAY,EASTERN,12,39.31638394,-76.61176948,1
466,3829 012 040616,3829,12,2435 SAINT PAUL ST,4/6/2016,BARCLAY,NORTHERN,12,39.31728752,-76.61501076,1
467,3830 020 041216,3830,20,2408 SAINT PAUL ST,4/12/2016,OLD GOUCHER,NORTHERN,12,39.31669337,-76.61557329,1
468,3935 060 042116,3935,60,2791 THE ALAMEDA,4/21/2016,COLDSTREAM HOMESTEAD MONTEBELLO,NORTHEASTERN,14,39.32313547,-76.59241996,1
469,3937 052 041516,3937,52,2712 HUGO AVE,4/15/2016,COLDSTREAM HOMESTEAD MONTEBELLO,NORTHEASTERN,14,39.32317986,-76.58941875,1
470,3962 006 041516,3962,6,1601 CHILTON ST,4/15/2016,COLDSTREAM HOMESTEAD MONTEBELLO,NORTHEASTERN,14,39.32735947,-76.59392158,1
471,3969F024 040516,3969F,24,1527 KINGSWAY ROAD,4/5/2016,HILLEN,NORTHEASTERN,3,39.34410851,-76.59047343,1
472,3969M122 042716,3969M,122,1638 NORTHGATE ROAD,4/27/2016,HILLEN,NORTHEASTERN,3,39.34521305,-76.58775913,1
473,3972D053 040116,3972D,53,954 NORTH HILL ROAD,4/1/2016,EDNOR GARDENS-LAKESIDE,NORTHEASTERN,14,39.33825866,-76.60123609,1
474,3972O015 040416,3972O,15,3829 CRESTLYN ROAD,4/4/2016,EDNOR GARDENS-LAKESIDE,NORTHEASTERN,14,39.33497894,-76.59861434,1
475,4005 006 042216,4005,6,1110 E NORTH AVE,4/22/2016,EAST BALTIMORE MIDWAY,EASTERN,12,39.31197795,-76.603787,1
476,4007 018 042516,4007,18,1908 SHERWOOD AVE,4/25/2016,EAST BALTIMORE MIDWAY,EASTERN,12,39.31234312,-76.60103876,1
477,4008 002 042216,4008,2,1903 SHERWOOD AVE,4/22/2016,EAST BALTIMORE MIDWAY,EASTERN,12,39.31225757,-76.60072722,1
478,4008 003 042516,4008,3,1905 SHERWOOD AVE,4/25/2016,EAST BALTIMORE MIDWAY,EASTERN,12,39.31229114,-76.60072899,1
479,4008 004 042516,4008,4,1907 SHERWOOD AVE,4/25/2016,EAST BALTIMORE MIDWAY,EASTERN,12,39.31232517,-76.60073124,1
480,4008 005 042516,4008,5,1909 SHERWOOD AVE,4/25/2016,EAST BALTIMORE MIDWAY,EASTERN,12,39.31235846,-76.60073348,1
481,4008 007 042516,4008,7,1913 SHERWOOD AVE,4/25/2016,EAST BALTIMORE MIDWAY,EASTERN,12,39.31242468,-76.60073787,1
482,4010G019 042216,4010G,19,2118 AIKEN ST,4/22/2016,EAST BALTIMORE MIDWAY,EASTERN,12,39.31460307,-76.60019211,1
483,4011A020 041216,4011A,20,2037 ROBB ST,4/12/2016,EAST BALTIMORE MIDWAY,EASTERN,12,39.31374094,-76.60251857,1
484,4736 014 042116,4736,14,2101 W ROGERS AVE,4/21/2016,MOUNT WASHINGTON,NORTHERN,5,39.35753393,-76.65864449,1
485,5053 010 040816,5053,10,4618 YORK ROAD,4/8/2016,KERNEWOOD,NORTHERN,4,39.34495102,-76.60992066,1
486,0063 006 072412,63,6,1410 MOSHER ST,7/24/2012,SANDTOWN-WINCHESTER,WESTERN,9,39.3002387,-76.64056199,1
487,5138A012M 042516,5138A,012M,1020 E BELVEDERE AVE,4/25/2016,CHINQUAPIN PARK,NORTHERN,4,39.36013529,-76.59895138,1
488,5140A070 041216,5140A,70,5618 CLEARSPRING ROAD,4/12/2016,MID-GOVANS,NORTHERN,4,39.35885287,-76.6067874,1
489,5165 013 042816,5165,13,702 BEAUMONT AVE,4/28/2016,WINSTON-GOVANS,NORTHERN,4,39.35164523,-76.6061582,1
490,5165 067A 042916,5165,067A,711 MCCABE AVE,4/29/2016,WINSTON-GOVANS,NORTHERN,4,39.3521492,-76.6065628,1
491,5165D019 041116,5165D,19,5201 IVANHOE AVE,4/11/2016,WOODBOURNE-MCCABE,NORTHERN,4,39.3524886,-76.60454448,1
492,5173 011A 042816,5173,011A,529 BEAUMONT AVE,4/28/2016,WINSTON-GOVANS,NORTHERN,4,39.35129355,-76.60733872,1
493,5173B007 050516,5173B,7,812 WINSTON AVE,5/5/2016,WINSTON-GOVANS,NORTHERN,4,39.34996589,-76.60398408,1
494,5210A117 041116,5210A,117,1200 MERIDENE DR,4/11/2016,IDLEWOOD,NORTHEASTERN,4,39.36838778,-76.59277004,1
495,5267H086 042916,5267H,86,1317 WINSTON AVE,4/29/2016,NEW NORTHWOOD,NORTHEASTERN,4,39.34963902,-76.5958681,1
496,5370A070 042016,5370A,70,5023 PILGRIM ROAD,4/20/2016,LAURAVILLE,NORTHEASTERN,3,39.351759,-76.57149761,1
497,5393 018 042016,5393,18,2801 HAMILTON AVE,4/20/2016,HAMILTON HILLS,NORTHEASTERN,3,39.35404486,-76.56386901,1
498,5555 051G 032916,5555,051G,3538 WOODRING AVE,3/29/2016,NORTH HARFORD ROAD,NORTHEASTERN,3,39.36066055,-76.5386152,1
499,5576 005 040516,5576,5,3900 CHESLEY AVE,4/5/2016,OVERLEA,NORTHEASTERN,2,39.35963907,-76.53272444,1
500,5603H097 040716,5603H,97,6514 HILLTOP AVE,4/7/2016,ROSEMONT EAST,NORTHEASTERN,2,39.35816168,-76.54216163,1
501,5623 003A 042016,5623,003A,3006 GLENMORE AVE,4/20/2016,WESTFIELD,NORTHEASTERN,3,39.35660921,-76.55692385,1
502,5625 002A 050416,5625,002A,6002 BURGESS AVE,5/4/2016,WESTFIELD,NORTHEASTERN,3,39.35585971,-76.55285353,1
503,5686 016 041816,5686,16,3514 MARY AVE,4/18/2016,GLENHAM-BELHAR,NORTHEASTERN,3,39.35091365,-76.54938201,1
504,5690 048 040816,5690,48,3714 MARY AVE,4/8/2016,GLENHAM-BELHAR,NORTHEASTERN,2,39.34876273,-76.54639282,1
505,5695F081A 042216,5695F,081A,5815 BENTON HEIGHTS AVE,4/22/2016,GLENHAM-BELHAR,NORTHEASTERN,2,39.34506015,-76.54394648,1
506,5789 002 040416,5789,2,3502 ECHODALE AVE,4/4/2016,WALTHERSON,NORTHEASTERN,3,39.34545096,-76.5580099,1
507,5804 102 042516,5804,102,5006 ROSS ROAD,4/25/2016,WALTHERSON,NORTHEASTERN,3,39.34570405,-76.56271753,1
508,5811 035 040516,5811,35,3306 ROSEKEMP AVE,4/5/2016,MORAVIA-WALTHER,NORTHEASTERN,3,39.34231359,-76.56464255,1
509,5872 002 050316,5872,2,4505 SCHLEY AVE,5/3/2016,WALTHERSON,NORTHEASTERN,3,39.33496789,-76.56340657,1
510,5898H121 041816,5898H,121,3901 EIERMAN AVE,4/18/2016,ARCADIA,NORTHEASTERN,3,39.33053819,-76.5670672,1
511,5902 019 042016,5902,19,3040 MAYFIELD AVE,4/20/2016,BELAIR-EDISON,NORTHEASTERN,13,39.32136852,-76.57100127,1
512,5917 025 050616,5917,25,3249 SHANNON DR,5/6/2016,BELAIR-EDISON,NORTHEASTERN,13,39.32409436,-76.56384377,1
513,5921 006 041816,5921,6,3311 KENYON AVE,4/18/2016,BELAIR-EDISON,NORTHEASTERN,13,39.3225818,-76.56583213,1
514,0065 017 021805,65,17,1232 MOSHER ST,2/18/2005,SANDTOWN-WINCHESTER,WESTERN,9,39.30031666,-76.6384925,1
515,0065 018 010307,65,18,1234 MOSHER ST,1/3/2007,SANDTOWN-WINCHESTER,WESTERN,9,39.30031492,-76.63853978,1
516,0065 019 120704,65,19,1236 MOSHER ST,12/7/2004,SANDTOWN-WINCHESTER,WESTERN,9,39.30031327,-76.63858551,1
517,0065 022 122706,65,22,1013 N CAREY ST,12/27/2006,SANDTOWN-WINCHESTER,WESTERN,9,39.30049326,-76.63854664,1
518,0065 023 022807,65,23,1015 N CAREY ST,2/28/2007,SANDTOWN-WINCHESTER,WESTERN,9,39.30052904,-76.63854973,1
519,0065 025 021011,65,25,1019 N CAREY ST,2/10/2011,SANDTOWN-WINCHESTER,WESTERN,9,39.30063081,-76.63855684,1
520,0065 026 052909,65,26,1021 N CAREY ST,5/29/2009,SANDTOWN-WINCHESTER,WESTERN,9,39.30066742,-76.63855856,1
521,0065 031 020708,65,31,1031 N CAREY ST,2/7/2008,SANDTOWN-WINCHESTER,WESTERN,9,39.30085883,-76.63853306,1
522,0065 032 062204,65,32,1033 N CAREY ST,6/22/2004,SANDTOWN-WINCHESTER,WESTERN,9,39.30089886,-76.63853506,1
523,0065 036 040609,65,36,1024 N CARROLLTON AVE,4/6/2009,SANDTOWN-WINCHESTER,WESTERN,9,39.3009153,-76.63779072,1
524,0065 038 122010,65,38,1020 N CARROLLTON AVE,12/20/2010,SANDTOWN-WINCHESTER,WESTERN,9,39.30072852,-76.6376638,1
525,0065 039 041806,65,39,1018 N CARROLLTON AVE,4/18/2006,SANDTOWN-WINCHESTER,WESTERN,9,39.30069585,-76.63766074,1
526,4011B008 042216,4011B,8,1114 E 20TH ST,4/22/2016,EAST BALTIMORE MIDWAY,EASTERN,12,39.31298912,-76.60375983,1
527,4011B009 042216,4011B,9,1116 E 20TH ST,4/22/2016,EAST BALTIMORE MIDWAY,EASTERN,12,39.31299161,-76.60370702,1
528,4021C085 042216,4021C,85,2218 KIRK AVE,4/22/2016,EAST BALTIMORE MIDWAY,EASTERN,12,39.31512181,-76.60550594,1
529,4022 006 050616,4022,6,2111 HOMEWOOD AVE,5/6/2016,EAST BALTIMORE MIDWAY,EASTERN,12,39.31373107,-76.60694898,1
530,4051A008 042116,4051A,8,3215 WESTERWALD AVE,4/21/2016,BETTER WAVERLY,NORTHERN,14,39.32787723,-76.60506816,1
531,4051A017 041916,4051A,17,815 E 33RD ST,4/19/2016,BETTER WAVERLY,NORTHERN,14,39.32811263,-76.6046467,1
532,4053 043 041116,4053,43,3312 WESTERWALD AVE,4/11/2016,WAVERLY,NORTHERN,14,39.32930474,-76.60528653,1
533,4056A016 041116,4056A,16,804 E 35TH ST,4/11/2016,WAVERLY,NORTHERN,14,39.33085202,-76.60489733,1
534,4058 014 040516,4058,14,609 MCKEWIN AVE,4/5/2016,WAVERLY,NORTHERN,14,39.33275665,-76.60709185,1
535,4063 022 050616,4063,22,2406 LOCH RAVEN ROAD,5/6/2016,EAST BALTIMORE MIDWAY,EASTERN,12,39.31692163,-76.60863861,1
536,4063 024 050616,4063,24,2410 LOCH RAVEN ROAD,5/6/2016,EAST BALTIMORE MIDWAY,EASTERN,12,39.31698438,-76.60857852,1
537,4070A087 042116,4070A,87,2648 BOONE ST,4/21/2016,BETTER WAVERLY,NORTHERN,14,39.32046325,-76.60885688,1
538,4096 007 042016,4096,7,922 HOMESTEAD ST,4/20/2016,BETTER WAVERLY,NORTHERN,14,39.32558382,-76.60379029,1
539,4114A102 042716,4114A,102,2516 HARFORD ROAD,4/27/2016,COLDSTREAM HOMESTEAD MONTEBELLO,NORTHEASTERN,14,39.31849952,-76.59393936,1
540,4114I006 041816,4114I,6,2520 GARRETT AVE,4/18/2016,COLDSTREAM HOMESTEAD MONTEBELLO,NORTHEASTERN,14,39.31906962,-76.59887255,1
541,4120 028 050616,4120,28,1603 GORSUCH AVE,5/6/2016,COLDSTREAM HOMESTEAD MONTEBELLO,NORTHEASTERN,14,39.32157292,-76.59563807,1
542,4123 043 042716,4123,43,1712 HOMESTEAD ST,4/27/2016,COLDSTREAM HOMESTEAD MONTEBELLO,NORTHEASTERN,14,39.32037113,-76.59433607,1
543,4128 001C 040116,4128,001C,1708 CARSWELL ST,4/1/2016,COLDSTREAM HOMESTEAD MONTEBELLO,NORTHEASTERN,14,39.32148529,-76.59324572,1
544,4129 042 042116,4129,42,1623 CARSWELL ST,4/21/2016,COLDSTREAM HOMESTEAD MONTEBELLO,NORTHEASTERN,14,39.32186855,-76.59464894,1
545,4138 037 040116,4138,37,2805 KENNEDY AVE,4/1/2016,COLDSTREAM HOMESTEAD MONTEBELLO,NORTHEASTERN,14,39.32300495,-76.59383649,1
546,4163A048 042516,4163A,48,1695 DARLEY AVE,4/25/2016,DARLEY PARK,EASTERN,12,39.31452826,-76.59401609,1
547,4171 144 042016,4171,144,1901 N COLLINGTON AVE,4/20/2016,SOUTH CLIFTON PARK,EASTERN,12,39.31287067,-76.58727642,1
548,4178 061 041116,4178,61,3235 RAVENWOOD AVE,4/11/2016,FOUR BY FOUR,NORTHEASTERN,13,39.31516105,-76.57739798,1
549,4178G009 042016,4178G,9,3317 LYNDALE AVE,4/20/2016,FOUR BY FOUR,NORTHEASTERN,13,39.31629716,-76.57663388,1
550,4179K057 040816,4179K,57,3819 ELMLEY AVE,4/8/2016,BELAIR-EDISON,NORTHEASTERN,13,39.31755483,-76.56491047,1
551,4179K158 042816,4179K,158,3810 LYNDALE AVE,4/28/2016,BELAIR-EDISON,NORTHEASTERN,13,39.3172064,-76.56514588,1
552,4441 017 041516,4441,17,5804 ETHELBERT AVE,4/15/2016,GLEN,NORTHWESTERN,5,39.35601192,-76.68362932,1
553,0072 036 022812,72,36,917 N MONROE ST,2/28/2012,SANDTOWN-WINCHESTER,WESTERN,9,39.29939954,-76.64728544,1
554,4589 036 032916,4589,36,5134 PEMBRIDGE AVE,3/29/2016,CENTRAL PARK HEIGHTS,NORTHWESTERN,6,39.35141247,-76.67121703,1
555,4592 034 032816,4592,34,5000 PIMLICO ROAD,3/28/2016,CENTRAL PARK HEIGHTS,NORTHWESTERN,6,39.35010976,-76.66938386,1
556,4596 021 042516,4596,21,4007 W GARRISON AVE,4/25/2016,LANGSTON HUGHES,NORTHWESTERN,6,39.34264117,-76.68099244,1
557,4614 012 040616,4614,12,4907 QUEENSBERRY AVE,4/6/2016,CENTRAL PARK HEIGHTS,NORTHWESTERN,6,39.34851909,-76.67047449,1
558,0159 014 021314,159,14,2227 PENROSE AVE,2/13/2014,PENROSE/FAYETTE STREET OUTREACH,WESTERN,9,39.29090942,-76.65243148,1
559,6158A019 041916,6158A,19,3329 MCELDERRY ST,4/19/2016,ELLWOOD PARK/MONUMENT,SOUTHEASTERN,13,39.29800673,-76.57042141,1
560,6159A044 040716,6159A,44,416 N CLINTON ST,4/7/2016,ELLWOOD PARK/MONUMENT,SOUTHEASTERN,13,39.29631164,-76.57081645,1
561,6181 013 042916,6181,13,900 N KRESSON ST,4/29/2016,ORANGEVILLE,EASTERN,13,39.30204114,-76.56085677,1
562,6199 023 033016,6199,23,6911 PROCTMAN AVE,3/30/2016,PULASKI INDUSTRIAL AREA,NORTHEASTERN,2,39.30933991,-76.53514636,1
563,6273 012 033116,6273,12,3500 NOBLE ST,3/31/2016,BALTIMORE HIGHLANDS,SOUTHEASTERN,1,39.29323053,-76.56852299,1
564,6273 062 041116,6273,62,25 N HIGHLAND AVE,4/11/2016,BALTIMORE HIGHLANDS,SOUTHEASTERN,1,39.29342707,-76.56920931,1
565,6275 033 050316,6275,33,3319 NOBLE ST,5/3/2016,PATTERSON PARK NEIGHBORHOOD,SOUTHEASTERN,1,39.29287807,-76.57010688,1
566,6288 001 042516,6288,1,3400 MOUNT PLEASANT AVE,4/25/2016,BALTIMORE HIGHLANDS,SOUTHEASTERN,1,39.29098034,-76.56914093,1
567,6296 025 042216,6296,25,300 S CLINTON ST,4/22/2016,HIGHLANDTOWN,SOUTHEASTERN,1,39.28840738,-76.57035734,1
568,6741 045 050216,6741,45,1403 DUNDALK AVE,5/2/2016,GRACELAND PARK,SOUTHEASTERN,1,39.27820537,-76.53320516,1
569,6750E020 042516,6750E,20,1700 KANE ST,4/25/2016,BROENING MANOR,SOUTHEASTERN,1,39.27295069,-76.53612594,1
570,7027C018 040816,7027C,18,50 W TALBOTT ST,4/8/2016,BROOKLYN,SOUTHERN,10,39.23689486,-76.61301696,1
571,7075 038 040116,7075,38,409 ANNABEL AVE,4/1/2016,BROOKLYN,SOUTHERN,10,39.23788339,-76.60411718,1
572,7086 008 042216,7086,8,719 E PATAPSCO AVE,4/22/2016,BROOKLYN,SOUTHERN,10,39.23540253,-76.60033,1
573,7087 036 040116,7087,36,3600 9TH ST,4/1/2016,BROOKLYN,SOUTHERN,10,39.23456964,-76.59815112,1
574,7118 003 041916,7118,3,905 JACK ST,4/19/2016,BROOKLYN,SOUTHERN,10,39.23104716,-76.59939451,1
575,7123 016 032816,7123,16,4002 3RD ST,3/28/2016,BROOKLYN,SOUTHERN,10,39.23345767,-76.60958299,1
576,7437A029 041816,7437A,29,2258 SIDNEY AVE,4/18/2016,WESTPORT,SOUTHERN,10,39.2629862,-76.6332952,1
577,7446 065 040716,7446,65,2805 MAISEL ST,4/7/2016,WESTPORT,SOUTHERN,10,39.26163579,-76.63414723,1
578,7471 015 040716,7471,15,2536 HOLLINS FERRY ROAD,4/7/2016,MOUNT WINANS,SOUTHERN,10,39.26045486,-76.64281004,1
579,7796 034A 050216,7796,034A,1731 WILMINGTON AVE,5/2/2016,MORRELL PARK,SOUTHWESTERN,10,39.26629078,-76.65499224,1
580,7841B006 033116,7841B,6,2447 WASHINGTON BLVD,3/31/2016,MORRELL PARK,SOUTHWESTERN,10,39.26702259,-76.65167244,1
581,7868B005 033116,7868B,5,2353 WASHINGTON BLVD,3/31/2016,MORRELL PARK,SOUTHWESTERN,10,39.26862101,-76.64980275,1
582,7993D006 041316,7993D,6,610 N CHAPELGATE LANE,4/13/2016,WEST HILLS,SOUTHWESTERN,8,39.29283346,-76.70545069,1
583,8190 123 040516,8190,123,5520 GROVELAND AVE,4/5/2016,GROVE PARK,NORTHWESTERN,5,39.34101269,-76.69999422,1
584,8211A009 041916,8211A,9,4011 ELDERON AVE,4/19/2016,WEST ARLINGTON,NORTHWESTERN,6,39.34149402,-76.68634241,1
585,0072 028 061109,72,28,1821 MOSHER ST,6/11/2009,SANDTOWN-WINCHESTER,WESTERN,9,39.29963237,-76.64715179,1
586,0072 032 022608,72,32,1829 MOSHER ST,2/26/2008,SANDTOWN-WINCHESTER,WESTERN,9,39.29962504,-76.64736243,1
587,0072 034 102606,72,34,921 N MONROE ST,10/26/2006,SANDTOWN-WINCHESTER,WESTERN,9,39.29947308,-76.64728942,1
588,8246 014 040616,8246,14,3716 HILLSDALE ROAD,4/6/2016,HOWARD PARK,NORTHWESTERN,5,39.33389845,-76.6931978,1
589,8248 003 041516,8248,3,3607 MOHAWK AVE,4/15/2016,HOWARD PARK,NORTHWESTERN,5,39.33133032,-76.69213679,1
590,8308 001A 042516,8308,001A,5008 GWYNN OAK AVE,4/25/2016,HOWARD PARK,NORTHWESTERN,8,39.33079641,-76.69965527,1
591,0004 013 051316,4,13,1825 N FULTON AVE,5/13/2016,SANDTOWN-WINCHESTER,WESTERN,7,39.30946191,-76.64595626,1
592,0050 067 050916,50,67,1123 N MONROE ST,5/9/2016,SANDTOWN-WINCHESTER,WESTERN,9,39.30168694,-76.64743329,1
593,0060 039 051216,60,39,1041 N FULTON AVE,5/12/2016,SANDTOWN-WINCHESTER,WESTERN,9,39.30077843,-76.64556524,1
594,0065 010 051216,65,10,1218 MOSHER ST,5/12/2016,SANDTOWN-WINCHESTER,WESTERN,9,39.30032887,-76.63816294,1
595,0274 039 050916,274,39,335 S PAYSON ST,5/9/2016,CARROLLTON RIDGE,SOUTHERN,9,39.28331479,-76.64809644,1
596,0274 056 051116,274,56,301 S PAYSON ST,5/11/2016,CARROLLTON RIDGE,SOUTHERN,9,39.2840764,-76.64814358,1
597,0314 045 051216,314,45,2029 DIVISION ST,5/12/2016,DRUID HEIGHTS,CENTRAL,11,39.30722129,-76.63674266,1
598,0328 092 051316,328,92,1822 ETTING ST,5/13/2016,DRUID HEIGHTS,CENTRAL,11,39.30590227,-76.63465874,1
599,0336 001 051216,336,1,1600 ARGYLE AVE,5/12/2016,UPTON,CENTRAL,11,39.30245432,-76.6352671,1
600,1488 010 050916,1488,10,2718 E OLIVER ST,5/9/2016,BEREA,EASTERN,13,39.3082554,-76.57944177,1
601,1521 061 051016,1521,61,1323 N MILTON AVE,5/10/2016,BEREA,EASTERN,13,39.30659628,-76.58254076,1
602,1531 002 051016,1531,2,1802 E BIDDLE ST,5/10/2016,BROADWAY EAST,EASTERN,12,39.30457761,-76.59238243,1
603,1531 003 051016,1531,3,1804 E BIDDLE ST,5/10/2016,BROADWAY EAST,EASTERN,12,39.30457892,-76.5923322,1
604,1538 008 051016,1538,8,1203 N MILTON AVE,5/10/2016,BEREA,EASTERN,13,39.30513251,-76.58240079,1
605,1549 033 050916,1549,33,1801 E BIDDLE ST,5/9/2016,MIDDLE EAST,EASTERN,12,39.30417952,-76.59240916,1
606,1556 032 051016,1556,32,2523 E BIDDLE ST,5/10/2016,BIDDLE STREET,EASTERN,13,39.30459363,-76.58185553,1
607,1573 036 051216,1573,36,2523 E CHASE ST,5/12/2016,BIDDLE STREET,EASTERN,13,39.30354662,-76.58148163,1
608,1605 015 051116,1605,15,2114 E MADISON ST,5/11/2016,MIDDLE EAST,EASTERN,13,39.29990168,-76.58702719,1
609,1606 064 051116,1606,64,2212 E MADISON ST,5/11/2016,MIDDLE EAST,EASTERN,13,39.29993562,-76.58628962,1
610,1658 002 051216,1658,2,503 N LAKEWOOD AVE,5/12/2016,MCELDERRY PARK,SOUTHEASTERN,13,39.29699052,-76.57910008,1
611,1678 044 051116,1678,44,304 N ROBINSON ST,5/11/2016,ELLWOOD PARK/MONUMENT,SOUTHEASTERN,13,39.29569728,-76.57307775,1
612,5173 008 051216,5173,8,5124 CRAIG AVE,5/12/2016,WINSTON-GOVANS,NORTHERN,4,39.35091051,-76.60699704,1
613,5237 060M 051216,5237,060M,6005 THE ALAMEDA,5/12/2016,RAMBLEWOOD,NORTHEASTERN,4,39.36627697,-76.59312856,1
614,5832D001I 051116,5832D,001I,4804 CROSSWOOD AVE,5/11/2016,WALTHERSON,NORTHEASTERN,3,39.34136794,-76.56136041,1
615,5931 027 051016,5931,27,4352 SHELDON AVE,5/10/2016,BELAIR-EDISON,NORTHEASTERN,2,39.32646145,-76.56143393,1
616,5953B003 051216,5953B,3,4903 GREENHILL AVE,5/12/2016,FRANKFORD,NORTHEASTERN,2,39.33345165,-76.55330942,1
617,6159 050 051016,6159,50,441 N EAST AVE,5/10/2016,ELLWOOD PARK/MONUMENT,SOUTHEASTERN,13,39.29704893,-76.57189117,1
618,6271 047 050916,6271,47,3516 ESTHER PL,5/9/2016,BALTIMORE HIGHLANDS,SOUTHEASTERN,1,39.29448865,-76.56823989,1
619,6287 008 051116,6287,8,119 S CONKLING ST,5/11/2016,BALTIMORE HIGHLANDS,SOUTHEASTERN,2,39.29060548,-76.56718199,1
620,6423 001 051116,6423,1,3301 EASTERN AVE,5/11/2016,CANTON,SOUTHEASTERN,1,39.2863137,-76.56977316,1
621,7419C011 051216,7419C,11,2027 ANNAPOLIS ROAD,5/12/2016,WESTPORT,SOUTHERN,10,39.26632417,-76.63162152,1
622,7841A046 051216,7841A,46,2008 GRIFFIS AVE,5/12/2016,MORRELL PARK,SOUTHWESTERN,10,39.26675747,-76.64971312,1
623,0619 034 051316,619,34,100 N HOWARD ST,5/13/2016,DOWNTOWN,CENTRAL,11,39.29058255,-76.61976886,1
624,0695 001 051116,695,1,500 S BENTALOU ST,5/11/2016,CARROLLTON RIDGE,SOUTHWESTERN,9,39.28126945,-76.65269882,1
625,1124 023 051016,1124,23,1309 E FEDERAL ST,5/10/2016,OLIVER,EASTERN,12,39.30812502,-76.60000185,1
626,1152 034 050916,1152,34,1216 BRENTWOOD AVE,5/9/2016,JOHNSTON SQUARE,EASTERN,12,39.30433121,-76.60952563,1
627,1474 015D 050916,1474,015D,1608 N MILTON AVE,5/9/2016,BROADWAY EAST,EASTERN,13,39.30925268,-76.58319248,1
628,0075 027 020811,75,27,930 N STRICKER ST,2/8/2011,SANDTOWN-WINCHESTER,WESTERN,9,39.29972706,-76.64184445,1
629,0075 029 122309,75,29,926 N STRICKER ST,12/23/2009,SANDTOWN-WINCHESTER,WESTERN,9,39.29963917,-76.64183935,1
630,0075 032 110804,75,32,920 N STRICKER ST,11/8/2004,SANDTOWN-WINCHESTER,WESTERN,9,39.2995053,-76.64183155,1
631,0075 033 100708,75,33,918 N STRICKER ST,10/7/2008,SANDTOWN-WINCHESTER,WESTERN,9,39.29945771,-76.64182879,1
632,0075 035 080808,75,35,914 N STRICKER ST,8/8/2008,SANDTOWN-WINCHESTER,WESTERN,9,39.29936812,-76.6418236,1
633,0075 039 122012,75,39,906 N STRICKER ST,12/20/2012,SANDTOWN-WINCHESTER,WESTERN,9,39.29918692,-76.64181305,1
634,0076 002 110308,76,2,903 N STRICKER ST,11/3/2008,SANDTOWN-WINCHESTER,WESTERN,9,39.29911197,-76.64124667,1
635,1745 077 051316,1745,77,113 S DURHAM ST,5/13/2016,UPPER FELLS POINT,SOUTHEASTERN,13,39.29001822,-76.59087289,1
636,2100 051 050916,2100,51,2695 1/2 WILKENS AVE,5/9/2016,MILLHILL,SOUTHWESTERN,9,39.27790448,-76.65828489,1
637,2109 006 051116,2109,6,2562 WILKENS AVE,5/11/2016,MILLHILL,SOUTHWESTERN,9,39.27925676,-76.6558002,1
638,2138 028 051216,2138,28,447 BRUNSWICK ST,5/12/2016,MILLHILL,SOUTHWESTERN,9,39.27951481,-76.65919989,1
639,2303 014 051316,2303,14,1817 N BENTALOU ST,5/13/2016,COPPIN HEIGHTS/ASH-CO-EAST,WESTERN,7,39.30901315,-76.65376208,1
640,2336 003 050916,2336,3,1204 N BENTALOU ST,5/9/2016,BRIDGEVIEW/GREENLAWN,WESTERN,9,39.30195236,-76.6539369,1
641,2443A036 051216,2443A,36,2939 BELMONT AVE,5/12/2016,ROSEMONT,SOUTHWESTERN,9,39.303201,-76.66692678,1
642,2470 013 051216,2470,13,2917 MOSHER ST,5/12/2016,FRANKLINTOWN ROAD,SOUTHWESTERN,9,39.29896293,-76.66613721,1
643,2486 014 051216,2486,14,626 N GRANTLEY ST,5/12/2016,EDGEWOOD,SOUTHWESTERN,8,39.29512725,-76.67753088,1
644,3003 078 050916,3003,78,3016 HERBERT ST,5/9/2016,WALBROOK,SOUTHWESTERN,7,39.30968944,-76.66851031,1
645,3061B091 050916,3061B,91,2501 N ELLAMONT ST,5/9/2016,HANLON-LONGWOOD,NORTHWESTERN,7,39.31533047,-76.67100844,1
646,3443 052 051116,3443,52,1920 PARK AVE,5/11/2016,RESERVOIR HILL,CENTRAL,7,39.31270059,-76.62829388,1
647,3811 030 051116,3811,30,2121 SAINT PAUL ST,5/11/2016,BARCLAY,NORTHERN,12,39.31397742,-76.61479434,1
648,3823 011 051216,3823,11,301 E 24TH ST,5/12/2016,BARCLAY,EASTERN,12,39.31632558,-76.61261702,1
649,3823 012 051216,3823,12,303 E 24TH ST,5/12/2016,BARCLAY,EASTERN,12,39.31632753,-76.61256407,1
650,3823 014 051216,3823,14,307 E 24TH ST,5/12/2016,BARCLAY,EASTERN,12,39.31633121,-76.61246394,1
651,3962 045 050916,3962,45,1630 E 32ND ST,5/9/2016,COLDSTREAM HOMESTEAD MONTEBELLO,NORTHEASTERN,14,39.32701381,-76.59261444,1
652,4000 042 050916,4000,42,1917 GREENMOUNT AVE,5/9/2016,EAST BALTIMORE MIDWAY,EASTERN,12,39.31211782,-76.60917768,1
653,4063 019 050916,4063,19,2400 LOCH RAVEN ROAD,5/9/2016,EAST BALTIMORE MIDWAY,EASTERN,12,39.31682859,-76.60872122,1
654,4094 008 051216,4094,8,1124 MONTPELIER ST,5/12/2016,BETTER WAVERLY,NORTHERN,14,39.32434981,-76.60257954,1
655,4114E015 051116,4114E,15,2629 GARRETT AVE,5/11/2016,COLDSTREAM HOMESTEAD MONTEBELLO,NORTHEASTERN,14,39.32021626,-76.59704545,1
656,4306A086E 051016,4306A,086E,4025 ROSECREST AVE,5/10/2016,GLEN,NORTHWESTERN,5,39.35341497,-76.69737647,1
657,4604 020 051316,4604,20,4809 BEAUFORT AVE,5/13/2016,CENTRAL PARK HEIGHTS,NORTHWESTERN,6,39.34389295,-76.67494318,1
658,0080 023 071814,80,23,910 N FREMONT AVE,7/18/2014,SANDTOWN-WINCHESTER,WESTERN,9,39.29978258,-76.63520545,1
659,8331 017 050916,8331,17,5306 NORWOOD AVE,5/9/2016,HOWARD PARK,NORTHWESTERN,8,39.32826686,-76.70611388,1
660,8415 001D 050916,8415,001D,2013 OAK DR,5/9/2016,FRANKLINTOWN,SOUTHWESTERN,8,39.31149102,-76.71107042,1
661,0106 056 051616,106,56,2011 HARLEM AVE,5/16/2016,MIDTOWN-EDMONDSON,WESTERN,9,39.29611904,-76.64947042,1
662,0190 064 051716,190,64,18 N PULASKI ST,5/17/2016,PENROSE/FAYETTE STREET OUTREACH,WESTERN,9,39.28863682,-76.65037755,1
663,0215 051 020907,215,51,8 S CAREY ST,2/9/2007,FRANKLIN SQUARE,WESTERN,9,39.28823338,-76.63833148,1
664,0235 077 051716,235,77,1016 BOYD ST,5/17/2016,HOLLINS MARKET,SOUTHERN,9,39.28735064,-76.63440105,1
665,0262 050 051916,262,50,242 S GILMOR ST,5/19/2016,NEW SOUTHWEST/MOUNT CLARE,SOUTHERN,9,39.28450593,-76.64238861,1
666,0276 020 051916,276,20,319 S FULTON AVE,5/19/2016,NEW SOUTHWEST/MOUNT CLARE,SOUTHERN,9,39.28389955,-76.64472129,1
667,0373 043 051716,373,43,1415 MYRTLE AVE,5/17/2016,UPTON,CENTRAL,11,39.30028654,-76.63376348,1
668,0510 014 051616,510,14,847 PARK AVE,5/16/2016,MID-TOWN BELVEDERE,CENTRAL,11,39.30031117,-76.61837357,1
669,1155 013 051916,1155,13,1231 GREENMOUNT AVE,5/19/2016,JOHNSTON SQUARE,EASTERN,12,39.30447633,-76.60783194,1
670,1368 002 051916,1368,2,1503 E BALTIMORE ST,5/19/2016,WASHINGTON HILL,SOUTHEASTERN,12,39.2911818,-76.59692506,1
671,1464 044 051816,1464,44,1703 N PORT ST,5/18/2016,BROADWAY EAST,EASTERN,13,39.310396,-76.58352954,1
672,1504 015 051716,1504,15,2409 E OLIVER ST,5/17/2016,BROADWAY EAST,EASTERN,13,39.30771244,-76.58392587,1
673,1509 031 051816,1509,31,1428 N POTOMAC ST,5/18/2016,BEREA,EASTERN,13,39.30800939,-76.5760822,1
674,1521 011 051716,1521,11,2520 E PRESTON ST,5/17/2016,BEREA,EASTERN,13,39.30605452,-76.58198092,1
675,1539 001 051616,1539,1,2601 E PRESTON ST,5/16/2016,BEREA,EASTERN,13,39.30570357,-76.58087772,1
676,1539 002 051616,1539,2,2603 E PRESTON ST,5/16/2016,BEREA,EASTERN,13,39.30570525,-76.58083103,1
677,1553 066 051816,1553,66,1109 N COLLINGTON AVE,5/18/2016,MIDDLE EAST,EASTERN,13,39.30399537,-76.58673291,1
678,1569 016 051916,1569,16,2131 E CHASE ST,5/19/2016,MIDDLE EAST,EASTERN,13,39.3033259,-76.58731395,1
679,1610 023 051816,1610,23,845 N LUZERNE AVE,5/18/2016,MADISON-EASTEND,EASTERN,13,39.30091643,-76.58075605,1
680,1622 024 051816,1622,24,2217 E MADISON ST,5/18/2016,MIDDLE EAST,EASTERN,13,39.29955871,-76.58617696,1
681,1645 055 051616,1645,55,2922 MCELDERRY ST,5/16/2016,ELLWOOD PARK/MONUMENT,SOUTHEASTERN,13,39.29817687,-76.57571326,1
682,1686 036 052016,1686,36,2038 E FAYETTE ST,5/20/2016,CARE,SOUTHEASTERN,13,39.29437246,-76.58802611,1
683,2470 014 051616,2470,14,2915 MOSHER ST,5/16/2016,FRANKLINTOWN ROAD,SOUTHWESTERN,9,39.29896492,-76.66608826,1
684,2504 089 051616,2504,89,779 N GRANTLEY ST,5/16/2016,EDGEWOOD,SOUTHWESTERN,8,39.29702881,-76.67532822,1
685,2717 004 051616,2717,4,4006 BOARMAN AVE,5/16/2016,DORCHESTER,NORTHWESTERN,6,39.33442109,-76.68471021,1
686,4419A004 052016,4419A,4,4206 W ROGERS AVE,5/20/2016,WOODMERE,NORTHWESTERN,5,39.34645696,-76.6919408,1
687,0084 080 030606,84,80,822 MCKEAN AVE,3/6/2006,HARLEM PARK,WESTERN,9,39.29835715,-76.64694394,1
688,0084 083 070115,84,83,816 MCKEAN AVE,7/1/2015,HARLEM PARK,WESTERN,9,39.29824194,-76.64693745,1
689,0084 084 041808,84,84,814 MCKEAN AVE,4/18/2008,HARLEM PARK,WESTERN,9,39.29820359,-76.64693531,1
690,0084 085 102208,84,85,812 MCKEAN AVE,10/22/2008,HARLEM PARK,WESTERN,9,39.29816547,-76.64693318,1
691,0085 003 040115,85,3,805 N FULTON AVE,4/1/2015,HARLEM PARK,WESTERN,9,39.29783536,-76.64540164,1
692,0085 006 082406,85,6,811 N FULTON AVE,8/24/2006,HARLEM PARK,WESTERN,9,39.29796861,-76.64540949,1
693,0085 007 072314,85,7,813 N FULTON AVE,7/23/2014,HARLEM PARK,WESTERN,9,39.29801199,-76.64541197,1
694,0085 011 071709,85,11,821 N FULTON AVE,7/17/2009,HARLEM PARK,WESTERN,9,39.29817294,-76.64542142,1
695,0085 022 030612,85,22,1721 W LAFAYETTE AVE,3/6/2012,HARLEM PARK,WESTERN,9,39.29859506,-76.64510141,1
696,2948 011 051716,2948,11,3812 BELLE AVE,5/17/2016,CALLAWAY-GARRISON,NORTHWESTERN,6,39.3336074,-76.67928979,1
697,3024 029 051816,3024,29,2838 CLIFTON AVE,5/18/2016,PANWAY/BRADDISH AVENUE,WESTERN,7,39.31160449,-76.66545945,1
698,3055B008 051916,3055B,8,3200 GWYNNS FALLS PKWY,5/19/2016,HANLON-LONGWOOD,NORTHWESTERN,7,39.31464362,-76.67143296,1
699,3061B277 051816,3061B,277,3001 PIEDMONT AVE,5/18/2016,HANLON-LONGWOOD,NORTHWESTERN,7,39.31675791,-76.6688918,1
700,3170 011 052016,3170,11,2807 ULMAN AVE,5/20/2016,PARK CIRCLE,NORTHWESTERN,6,39.32838894,-76.66080092,1
701,3327C024 052016,3327C,24,3423 PARK HEIGHTS AVE,5/20/2016,PARK CIRCLE,NORTHWESTERN,6,39.32686332,-76.65719982,1
702,3644 068 051916,3644,68,2739 MILES AVE,5/19/2016,REMINGTON,NORTHERN,12,39.32022062,-76.62305364,1
703,4024 049 051816,4024,49,623 COKESBURY AVE,5/18/2016,EAST BALTIMORE MIDWAY,EASTERN,12,39.31613779,-76.60797941,1
704,4123 024 051816,4123,24,1761 GORSUCH AVE,5/18/2016,COLDSTREAM HOMESTEAD MONTEBELLO,NORTHEASTERN,14,39.31989758,-76.5929583,1
705,4171 176 051916,4171,176,1965 N COLLINGTON AVE,5/19/2016,SOUTH CLIFTON PARK,EASTERN,12,39.31401026,-76.58735906,1
706,0089 033 020811,89,33,1327 W LAFAYETTE AVE,2/8/2011,HARLEM PARK,WESTERN,9,39.29880208,-76.63958922,1
707,0089 034 091406,89,34,1325 W LAFAYETTE AVE,9/14/2006,HARLEM PARK,WESTERN,9,39.2988039,-76.63953644,1
708,0089 036 031015,89,36,1321 W LAFAYETTE AVE,3/10/2015,HARLEM PARK,WESTERN,9,39.29880754,-76.63942974,1
709,0089 037 052709,89,37,1319 W LAFAYETTE AVE,5/27/2009,HARLEM PARK,WESTERN,9,39.29880945,-76.63937629,1
710,0089 044 030612,89,44,838 N CAREY ST,3/6/2012,HARLEM PARK,WESTERN,9,39.29879701,-76.63898343,1
711,4544A022 051916,4544A,22,5268 CORDELIA AVE,5/19/2016,ARLINGTON,NORTHWESTERN,5,39.34662639,-76.68295673,1
712,5387 119 051816,5387,119,1905 E BELVEDERE AVE,5/18/2016,LOCH RAVEN,NORTHEASTERN,3,39.35640055,-76.57976581,1
713,5744B046 052016,5744B,46,4610 BAYONNE AVE,5/20/2016,FRANKFORD,NORTHEASTERN,2,39.34110677,-76.53631802,1
714,7139 070 051816,7139,70,3744 10TH ST,5/18/2016,BROOKLYN,SOUTHERN,10,39.23246749,-76.59702441,1
715,7772 016 051916,7772,16,1018 PARKSLEY AVE,5/19/2016,WILHELM PARK,SOUTHWESTERN,10,39.27347263,-76.6636976,1
716,8143 055 051616,8143,55,4709 VANCOUVER ROAD,5/16/2016,BEECHFIELD,SOUTHWESTERN,8,39.27356989,-76.69603509,1
717,0059 045 052316,59,45,1003 N MONROE ST,5/23/2016,SANDTOWN-WINCHESTER,WESTERN,9,39.30022151,-76.64733207,1
718,0072 035 052716,72,35,919 N MONROE ST,5/27/2016,SANDTOWN-WINCHESTER,WESTERN,9,39.29943656,-76.64728743,1
719,0119 042 052616,119,42,1946 LAURETTA AVE,5/26/2016,MIDTOWN-EDMONDSON,WESTERN,9,39.29460163,-76.64882434,1
720,0293 025 052316,293,25,1625 WESTWOOD AVE,5/23/2016,SANDTOWN-WINCHESTER,WESTERN,7,39.30897407,-76.64396225,1
721,0314 069 052516,314,69,2020 ETTING ST,5/25/2016,DRUID HEIGHTS,CENTRAL,11,39.30736185,-76.63648962,1
722,1506 030 052716,1506,30,1410 N LAKEWOOD AVE,5/27/2016,BEREA,EASTERN,13,39.3076272,-76.58025096,1
723,1519 029 052716,1519,29,2333 E HOFFMAN ST,5/27/2016,BROADWAY EAST,EASTERN,13,39.30663298,-76.5843551,1
724,1535 034 052616,1535,34,1226 N PATTERSON PARK AVE,5/26/2016,BROADWAY EAST,EASTERN,13,39.30537019,-76.58578008,1
725,1535 038 052416,1535,38,2245 E PRESTON ST,5/24/2016,BROADWAY EAST,EASTERN,13,39.30551333,-76.58584612,1
726,1537 054 052716,1537,54,1217 N MONTFORD AVE,5/27/2016,BROADWAY EAST,EASTERN,13,39.30512692,-76.58385707,1
727,1593 019 052416,1593,19,929 N LUZERNE AVE,5/24/2016,MADISON-EASTEND,EASTERN,13,39.30165162,-76.58080722,1
728,1627 034 052616,1627,34,740 N KENWOOD AVE,5/26/2016,MADISON-EASTEND,EASTERN,13,39.29986941,-76.57836215,1
729,0019 037 053116,19,37,1528 APPLETON ST,5/31/2016,EASTERWOOD,WESTERN,7,39.30606883,-76.64907124,1
730,0050 081 060116,50,81,1828 RIGGS AVE,6/1/2016,SANDTOWN-WINCHESTER,WESTERN,9,39.30110781,-76.64739768,1
731,0060 050 060116,60,50,1019 N FULTON AVE,6/1/2016,SANDTOWN-WINCHESTER,WESTERN,9,39.30035776,-76.64553973,1
732,0066 001 060116,66,1,1102 MOSHER ST,6/1/2016,SANDTOWN-WINCHESTER,WESTERN,9,39.30046879,-76.63612369,1
733,0092 008 053116,92,8,822 N FREMONT AVE,5/31/2016,HARLEM PARK,WESTERN,9,39.29878721,-76.63456609,1
734,0096 003 060216,96,3,704 N FULTON AVE,6/2/2016,HARLEM PARK,WESTERN,9,39.29664053,-76.64598877,1
735,0112 030 060216,112,30,1309 HARLEM AVE,6/2/2016,HARLEM PARK,WESTERN,9,39.29661897,-76.63934813,1
736,0115 043 060216,115,43,1002 EDMONDSON AVE,6/2/2016,HARLEM PARK,WESTERN,9,39.2957926,-76.63440002,1
737,0122 011 053116,122,11,522 N GILMOR ST,5/31/2016,HARLEM PARK,WESTERN,9,39.29456719,-76.64300397,1
738,0128 070 053116,128,70,1006 BENNETT PL,5/31/2016,HARLEM PARK,WESTERN,9,39.29509187,-76.63463417,1
739,0009 054 060716,9,54,1718 PRESBURY ST,6/7/2016,SANDTOWN-WINCHESTER,WESTERN,7,39.30814535,-76.64548631,1
740,0020 087 061016,20,87,1530 MCKEAN AVE,6/10/2016,SANDTOWN-WINCHESTER,WESTERN,7,39.30581902,-76.64734312,1
741,0020 088 061016,20,88,1528 MCKEAN AVE,6/10/2016,SANDTOWN-WINCHESTER,WESTERN,7,39.30578189,-76.64734115,1
742,0058 003 060816,58,3,1904 MOSHER ST,6/8/2016,MIDTOWN-EDMONDSON,WESTERN,9,39.30001004,-76.64782512,1
743,0150 029 060816,150,29,1627 W MULBERRY ST,6/8/2016,FRANKLIN SQUARE,WESTERN,9,39.29284188,-76.64374033,1
744,0197 007 060816,197,7,1413 W FAYETTE ST,6/8/2016,FRANKLIN SQUARE,WESTERN,9,39.28942159,-76.64023866,1
745,0094 073 101813,94,73,2039 W LANVALE ST,10/18/2013,MIDTOWN-EDMONDSON,WESTERN,9,39.2972622,-76.6502687,1
746,0094 075 031908,94,75,2035 W LANVALE ST,3/19/2008,MIDTOWN-EDMONDSON,WESTERN,9,39.29726565,-76.65016798,1
747,0359 010 052316,359,10,1520 ARGYLE AVE,5/23/2016,UPTON,CENTRAL,11,39.30163482,-76.63440331,1
748,1023 024 052716,1023,24,1702 LIGHT ST,5/27/2016,SOUTH BALTIMORE,SOUTHERN,11,39.27036876,-76.61179813,1
749,4010L011 052716,4010L,11,1001 DARLEY AVE,5/27/2016,EAST BALTIMORE MIDWAY,EASTERN,12,39.31693957,-76.60057272,1
750,4062 031A 052616,4062,031A,516 E 25TH ST,5/26/2016,BETTER WAVERLY,NORTHERN,14,39.31844982,-76.60837417,1
751,4166 012 052716,4166,12,1605 E 25TH ST,5/27/2016,DARLEY PARK,EASTERN,14,39.31630257,-76.59497208,1
752,4166A013 052716,4166A,13,1624 E 25TH ST,5/27/2016,DARLEY PARK,EASTERN,14,39.3165443,-76.59451111,1
753,4166A026 052716,4166A,26,1650 E 25TH ST,5/27/2016,DARLEY PARK,EASTERN,14,39.31633984,-76.59387387,1
754,4188B031 052416,4188B,31,3119 CLIFTMONT AVE,5/24/2016,BELAIR-EDISON,NORTHEASTERN,13,39.31911684,-76.57498273,1
755,4188B036 052616,4188B,36,3129 CLIFTMONT AVE,5/26/2016,BELAIR-EDISON,NORTHEASTERN,13,39.31902793,-76.57465348,1
756,4587 026 052516,4587,26,5023 PALMER AVE,5/25/2016,CENTRAL PARK HEIGHTS,NORTHWESTERN,6,39.34883997,-76.67307891,1
757,4606 018 052716,4606,18,3334 WOODLAND AVE,5/27/2016,CENTRAL PARK HEIGHTS,NORTHWESTERN,6,39.3433485,-76.67324092,1
758,0304 030 060216,304,30,2229 DRUID HILL AVE,6/2/2016,DRUID HEIGHTS,CENTRAL,7,39.30971284,-76.63776476,1
759,0307 050 060216,307,50,2105 PENNSYLVANIA AVE,6/2/2016,DRUID HEIGHTS,CENTRAL,7,39.3070702,-76.63840011,1
760,0431 031 060116,431,31,1142 ARGYLE AVE,6/1/2016,UPTON,CENTRAL,11,39.29837202,-76.63054261,1
761,0293 043 061016,293,43,1711 N CALHOUN ST,6/10/2016,SANDTOWN-WINCHESTER,WESTERN,7,39.30847209,-76.64372423,1
762,0313 071 060716,313,71,554 PRESSTMAN ST,6/7/2016,UPTON,CENTRAL,11,39.30668331,-76.63678055,1
763,0327 013 060716,327,13,1824 DIVISION ST,6/7/2016,UPTON,CENTRAL,11,39.3053878,-76.63519616,1
764,0376 006 060716,376,6,1410 DRUID HILL AVE,6/7/2016,UPTON,CENTRAL,11,39.30289483,-76.63003761,1
765,0376 033 060716,376,33,502 W LAFAYETTE AVE,6/7/2016,UPTON,CENTRAL,11,39.3026706,-76.63006534,1
766,0412 038 060916,412,38,1215 MYRTLE AVE,6/9/2016,UPTON,CENTRAL,11,39.29857901,-76.63168362,1
767,0412 039 060916,412,39,1213 MYRTLE AVE,6/9/2016,UPTON,CENTRAL,11,39.29854592,-76.63164401,1
768,0412 040 060916,412,40,1211 MYRTLE AVE,6/9/2016,UPTON,CENTRAL,11,39.29851422,-76.63160522,1
769,0415 064 060916,415,64,1230 ETTING ST,6/9/2016,UPTON,CENTRAL,11,39.30125282,-76.62902146,1
770,2395 061 052516,2395,61,2703 RIGGS AVE,5/25/2016,MOSHER,WESTERN,9,39.30014415,-76.66189252,1
771,2402 033 052316,2402,33,1810 ASHBURTON ST,5/23/2016,COPPIN HEIGHTS/ASH-CO-EAST,WESTERN,7,39.30844134,-76.66250031,1
772,2409A059 052616,2409A,59,2906 BRIGHTON ST,5/26/2016,NORTHWEST COMMUNITY ACTION,SOUTHWESTERN,9,39.30546049,-76.66629245,1
773,2442B065 052416,2442B,65,3218 WESTMONT AVE,5/24/2016,ROSEMONT,SOUTHWESTERN,9,39.30139475,-76.67050406,1
774,2447 011 052416,2447,11,1075 ELLICOTT DRIVEWAY,5/24/2016,FRANKLINTOWN ROAD,SOUTHWESTERN,9,39.30024943,-76.6686257,1
775,2450 042A 052316,2450,042A,3220 PRESSTMAN ST,5/23/2016,ROSEMONT,SOUTHWESTERN,9,39.30458219,-76.67145003,1
776,2904 004 052716,2904,4,3707 LIBERTY HEIGHTS AVE,5/27/2016,FOREST PARK,NORTHWESTERN,6,39.32629407,-76.67988723,1
777,2939 014 052716,2939,14,3817 SEQUOIA AVE,5/27/2016,CALLAWAY-GARRISON,NORTHWESTERN,6,39.331924,-76.68032563,1
778,3067 017 052516,3067,17,3313 POWHATAN AVE,5/25/2016,HANLON-LONGWOOD,NORTHWESTERN,7,39.32038749,-76.67436418,1
779,3211 093 052716,3211,93,2004 RIDGEHILL AVE,5/27/2016,MONDAWMIN,WESTERN,7,39.31145239,-76.65051034,1
780,3265B004 052316,3265B,4,2106 WHITTIER AVE,5/23/2016,MONDAWMIN,WESTERN,7,39.31551266,-76.64993134,1
781,3448 006 052316,3448,6,2110 MOUNT ROYAL TERR,5/23/2016,RESERVOIR HILL,CENTRAL,7,39.31327469,-76.62709485,1
782,3504E008 052316,3504E,8,3003 ELM AVE,5/23/2016,HAMPDEN,NORTHERN,14,39.3239696,-76.63072535,1
783,3510 059 052716,3510,59,3300 KESWICK ROAD,5/27/2016,HAMPDEN,NORTHERN,14,39.32722072,-76.62804746,1
784,3836B040 052716,3836B,40,404 E 25TH ST,5/27/2016,HARWOOD,NORTHERN,12,39.31832706,-76.61086474,1
785,5926 039 052716,5926,39,4229 SHAMROCK AVE,5/27/2016,BELAIR-EDISON,NORTHEASTERN,2,39.32743129,-76.56466533,1
786,7229 030 052716,7229,30,4112 GRACE CT,5/27/2016,CURTIS BAY,SOUTHERN,10,39.22797067,-76.58768639,1
787,7841J040 052716,7841J,40,2540 TOLLEY ST,5/27/2016,MORRELL PARK,SOUTHWESTERN,10,39.26414257,-76.65118066,1
788,8139L012 052516,8139L,12,423 RANDOM ROAD,5/25/2016,BEECHFIELD,SOUTHWESTERN,8,39.27983947,-76.69970058,1
789,1162 003 053116,1162,3,1207 N EDEN ST,5/31/2016,OLIVER,EASTERN,12,39.30456545,-76.59925859,1
790,1447 030 053116,1447,30,1817 E NORTH AVE,5/31/2016,BROADWAY EAST,EASTERN,12,39.31198344,-76.5924984,1
791,1456 020 060216,1456,20,1739 N BROADWAY,6/2/2016,BROADWAY EAST,EASTERN,12,39.31054873,-76.59463878,1
792,1466 020 060316,1466,20,1639 N BROADWAY,6/3/2016,BROADWAY EAST,EASTERN,12,39.30949001,-76.59457397,1
793,1111 103 060916,1111,103,429 E LANVALE ST,6/9/2016,GREENMOUNT WEST,EASTERN,12,39.30881791,-76.60983271,1
794,1160 031 061016,1160,31,1217 E PRESTON ST,6/10/2016,OLIVER,EASTERN,12,39.3048465,-76.60108247,1
795,1446 073 060616,1446,73,1710 1/2 E LAFAYETTE AVE,6/6/2016,BROADWAY EAST,EASTERN,12,39.31087083,-76.5941736,1
796,1446 074 060616,1446,74,1710 E LAFAYETTE AVE,6/6/2016,BROADWAY EAST,EASTERN,12,39.31086885,-76.59422321,1
797,1463 033 060616,1463,33,2321 E LAFAYETTE AVE,6/6/2016,BROADWAY EAST,EASTERN,13,39.31086482,-76.58476232,1
798,1487 029 060616,1487,29,1509 N LUZERNE AVE,6/6/2016,BEREA,EASTERN,13,39.30857339,-76.58119693,1
799,1510 043 060616,1510,43,1420 N DECKER AVE,6/6/2016,BEREA,EASTERN,13,39.30785847,-76.57506905,1
800,2127 044 061016,2127,44,3210 STRICKLAND ST,6/10/2016,GWYNNS FALLS,SOUTHWESTERN,10,39.27795677,-76.67019758,1
801,1873 014 060116,1873,14,933 FELL ST,6/1/2016,FELLS POINT,SOUTHEASTERN,1,39.28121094,-76.58988671,1
802,2108A046 060316,2108A,46,933 WILMINGTON AVE,6/3/2016,WILHELM PARK,SOUTHWESTERN,10,39.27434533,-76.66554047,1
803,2201 015 060116,2201,15,2329 EDMONDSON AVE,6/1/2016,ROSEMONT HOMEOWNERS/TENANTS,WESTERN,9,39.29453778,-76.65416967,1
804,2275A066 053116,2275A,66,145 N MONASTERY AVE,5/31/2016,ALLENDALE,SOUTHWESTERN,8,39.28871993,-76.67515326,1
805,2300 036 060216,2300,36,2100 WESTWOOD AVE,6/2/2016,EASTERWOOD,WESTERN,7,39.30886003,-76.65171236,1
806,2444 057 060216,2444,57,2901 ELLICOTT DRIVEWAY,6/2/2016,WINCHESTER,SOUTHWESTERN,9,39.30187631,-76.66611941,1
807,1557 051 060116,1557,51,2611 E BIDDLE ST,6/1/2016,BIDDLE STREET,EASTERN,13,39.3046376,-76.58077442,1
808,1591 042 053116,1591,42,2421 E EAGER ST,5/31/2016,MILTON-MONTFORD,EASTERN,13,39.30165234,-76.58331951,1
809,1655 034 060216,1655,34,530 N MILTON AVE,6/2/2016,MCELDERRY PARK,SOUTHEASTERN,13,39.29741399,-76.58246856,1
810,1671 017 053116,1671,17,435 N PATTERSON PARK AVE,5/31/2016,MCELDERRY PARK,SOUTHEASTERN,13,39.29636193,-76.58471862,1
811,1673 071 053116,1673,71,425 N ROSE ST,5/31/2016,MCELDERRY PARK,SOUTHEASTERN,13,39.29636704,-76.58125033,1
812,4114B034 053116,4114B,34,2608 AISQUITH ST,5/31/2016,COLDSTREAM HOMESTEAD MONTEBELLO,NORTHEASTERN,14,39.31928518,-76.59660525,1
813,1591 041 060616,1591,41,2423 E EAGER ST,6/6/2016,MILTON-MONTFORD,EASTERN,13,39.30165509,-76.58327507,1
814,1591 086 060616,1591,86,906 N MILTON AVE,6/6/2016,MILTON-MONTFORD,EASTERN,13,39.30137544,-76.58270411,1
815,1592 042 060616,1592,42,2536 ASHLAND AVE,6/6/2016,MILTON-MONTFORD,EASTERN,13,39.30118745,-76.5813263,1
816,1622 009 061016,1622,9,734 N PATTERSON PARK AVE,6/10/2016,MIDDLE EAST,EASTERN,13,39.29943771,-76.58543676,1
817,1637 003 060816,1637,3,612 N COLLINGTON AVE,6/8/2016,CARE,EASTERN,13,39.29818068,-76.58683357,1
818,1657 050 060816,1657,50,2608 JEFFERSON ST,6/8/2016,MCELDERRY PARK,SOUTHEASTERN,13,39.29698642,-76.5801456,1
819,7492C339 060716,7492C,339,3015 LORENA AVE,6/7/2016,LAKELAND,SOUTHERN,10,39.2560025,-76.65263258,1
820,7993D017 061016,7993D,17,712 N CHAPELGATE LANE,6/10/2016,WEST HILLS,SOUTHWESTERN,8,39.29336442,-76.70614812,1
821,8030H004 060816,8030H,4,4407 OLD FREDERICK ROAD,6/8/2016,UPLANDS,SOUTHWESTERN,8,39.2886014,-76.69022479,1
822,8329 013A 060616,8329,013A,5110 NORWOOD AVE,6/6/2016,HOWARD PARK,NORTHWESTERN,8,39.32927605,-76.70226243,1
823,3211 018 060216,3211,18,2034 WALBROOK AVE,6/2/2016,MONDAWMIN,WESTERN,7,39.31096217,-76.65097491,1
824,3211 031 060316,3211,31,2015 N PULASKI ST,6/3/2016,MONDAWMIN,WESTERN,7,39.31143126,-76.65116711,1
825,3212 033 060216,3212,33,2019 N SMALLWOOD ST,6/2/2016,MONDAWMIN,WESTERN,7,39.31147698,-76.65257202,1
826,3263 016 060316,3263,16,2517 LIBERTY HEIGHTS AVE,6/3/2016,BURLEITH-LEIGHTON,NORTHWESTERN,7,39.31960395,-76.65764295,1
827,3265B016 060316,3265B,16,2107 BRYANT AVE,6/3/2016,MONDAWMIN,WESTERN,7,39.31570963,-76.65016698,1
828,5267H067 053116,5267H,67,1418 STONEWOOD ROAD,5/31/2016,NEW NORTHWOOD,NORTHEASTERN,4,39.34973526,-76.59306954,1
829,6120 026 060216,6120,26,4611 CHATFORD AVE,6/2/2016,PARKSIDE,NORTHEASTERN,2,39.32402214,-76.55743238,1
830,6269A029 060316,6269A,29,3617 ROBERTS PL,6/3/2016,BALTIMORE HIGHLANDS,SOUTHEASTERN,1,39.29546594,-76.56717505,1
831,2163 012 061016,2163,12,114 N WHEELER AVE,6/10/2016,PENROSE/FAYETTE STREET OUTREACH,WESTERN,9,39.28959335,-76.65467365,1
832,0098 016 050715,98,16,704 N GILMOR ST,5/7/2015,HARLEM PARK,WESTERN,9,39.29674859,-76.64312154,1
833,0098 017 062606,98,17,706 N GILMOR ST,6/26/2006,HARLEM PARK,WESTERN,9,39.2967947,-76.64312409,1
834,0098 020 100506,98,20,712 N GILMOR ST,10/5/2006,HARLEM PARK,WESTERN,9,39.29693175,-76.64312913,1
835,0098 021 102312,98,21,714 N GILMOR ST,10/23/2012,HARLEM PARK,WESTERN,9,39.29697448,-76.64313149,1
836,0098 023 062212,98,23,718 N GILMOR ST,6/22/2012,HARLEM PARK,WESTERN,9,39.29705757,-76.64313614,1
837,0098 024 061609,98,24,720 N GILMOR ST,6/16/2009,HARLEM PARK,WESTERN,9,39.29709933,-76.64313847,1
838,0098 026 052212,98,26,724 N GILMOR ST,5/22/2012,HARLEM PARK,WESTERN,9,39.29718201,-76.64314305,1
839,0098 028 120204,98,28,728 N GILMOR ST,12/2/2004,HARLEM PARK,WESTERN,9,39.29726407,-76.64314759,1
840,0098 029 041608,98,29,730 N GILMOR ST,4/16/2008,HARLEM PARK,WESTERN,9,39.29730394,-76.64314276,1
841,0098 032 010312,98,32,1601 W LANVALE ST,1/3/2012,HARLEM PARK,WESTERN,9,39.29751917,-76.64301179,1
842,0098 033 091306,98,33,1603 W LANVALE ST,9/13/2006,HARLEM PARK,WESTERN,9,39.29751732,-76.64306071,1
843,0098 034 010711,98,34,1605 W LANVALE ST,1/7/2011,HARLEM PARK,WESTERN,9,39.29751561,-76.64311051,1
844,0098 035 092707,98,35,1607 W LANVALE ST,9/27/2007,HARLEM PARK,WESTERN,9,39.2975139,-76.64316125,1
845,0098 036 080112,98,36,1609 W LANVALE ST,8/1/2012,HARLEM PARK,WESTERN,9,39.29751219,-76.64321161,1
846,0098 037 010808,98,37,1611 W LANVALE ST,1/8/2008,HARLEM PARK,WESTERN,9,39.29751041,-76.64326379,1
847,6558 020 060116,6558,20,638 OLDHAM ST,6/1/2016,GREEKTOWN,SOUTHEASTERN,1,39.28521129,-76.55592877,1
848,7229 019 060216,7229,19,4113 GRACE CT,6/2/2016,CURTIS BAY,SOUTHERN,10,39.22798266,-76.58745643,1
849,3800 004 061016,3800,4,1901 N CHARLES ST,6/10/2016,CHARLES NORTH,CENTRAL,12,39.31154067,-76.61628307,1
850,4002 003 060816,4002,3,804 E NORTH AVE,6/8/2016,EAST BALTIMORE MIDWAY,EASTERN,12,39.31182832,-76.60688542,1
851,4002 005 060816,4002,5,808 E NORTH AVE,6/8/2016,EAST BALTIMORE MIDWAY,EASTERN,12,39.31183367,-76.6067796,1
852,4002 006 060816,4002,6,810 E NORTH AVE,6/8/2016,EAST BALTIMORE MIDWAY,EASTERN,12,39.31183633,-76.6067267,1
853,4010B024 060816,4010B,24,1234 DARLEY AVE,6/8/2016,EAST BALTIMORE MIDWAY,EASTERN,12,39.3158239,-76.59798775,1
854,4164A082 060616,4164A,82,1678 DARLEY AVE,6/6/2016,DARLEY PARK,EASTERN,12,39.31487515,-76.5941804,1
855,5165D036 061016,5165D,36,5216 IVANHOE AVE,6/10/2016,WOODBOURNE-MCCABE,NORTHERN,4,39.35291467,-76.60498254,1
856,5413 019 061016,5413,19,5603 BIRCHWOOD AVE,6/10/2016,HAMILTON HILLS,NORTHEASTERN,3,39.35733096,-76.56450296,1
857,5422 019 060916,5422,19,6209 MCCLEAN BLVD,6/9/2016,HAMILTON HILLS,NORTHEASTERN,3,39.36159273,-76.56847124,1
858,0102 046A 052809,102,046A,1202 HARLEM AVE,5/28/2009,HARLEM PARK,WESTERN,9,39.29682443,-76.637757,1
859,0103 017 102715,103,17,705 N CARROLLTON AVE,10/27/2015,HARLEM PARK,WESTERN,9,39.29695952,-76.63688425,1
860,0103 024 112911,103,24,1108 HARLEM AVE,11/29/2011,HARLEM PARK,WESTERN,9,39.29696149,-76.63636634,1
861,0103 026 042012,103,26,1104 HARLEM AVE,4/20/2012,HARLEM PARK,WESTERN,9,39.29695472,-76.6362249,1
862,0103 027 041615,103,27,1102 HARLEM AVE,4/16/2015,HARLEM PARK,WESTERN,9,39.29695719,-76.63617516,1
863,0103 031 022515,103,31,706 N ARLINGTON AVE,2/25/2015,HARLEM PARK,WESTERN,9,39.29701252,-76.63600626,1
864,2488 022 060816,2488,22,626 MOUNT HOLLY ST,6/8/2016,EDMONDSON VILLAGE,SOUTHWESTERN,8,39.29503362,-76.6800878,1
865,2503 023 060816,2503,23,742 N EDGEWOOD ST,6/8/2016,EDGEWOOD,SOUTHWESTERN,8,39.29636416,-76.6745204,1
866,2523A005 060816,2523A,5,3706 FLOWERTON ROAD,6/8/2016,EDGEWOOD,SOUTHWESTERN,8,39.29890793,-76.67908056,1
867,3168 020 061016,3168,20,2814 HILLDALE AVE,6/10/2016,PARK CIRCLE,NORTHWESTERN,6,39.32741528,-76.6604287,1
868,3196E003 060816,3196E,3,4804 REISTERSTOWN ROAD,6/8/2016,LUCILLE PARK,NORTHWESTERN,6,39.34142721,-76.67618755,1
869,3254 002 060716,3254,2,3102 REISTERSTOWN ROAD,6/7/2016,LIBERTY SQUARE,NORTHWESTERN,7,39.32266176,-76.65612255,1
870,3305 022 060916,3305,22,4347 REISTERSTOWN ROAD,6/9/2016,CENTRAL PARK HEIGHTS,NORTHWESTERN,6,39.33848821,-76.66717878,1
871,3325 016 060816,3325,16,3530 PARK HEIGHTS AVE,6/8/2016,PARK CIRCLE,NORTHWESTERN,6,39.32904345,-76.65911722,1
872,6287 007 060916,6287,7,117 S CONKLING ST,6/9/2016,BALTIMORE HIGHLANDS,SOUTHEASTERN,2,39.29063841,-76.5671787,1
873,6299B005 061016,6299B,5,3309 E PRATT ST,6/10/2016,HIGHLANDTOWN,SOUTHEASTERN,1,39.28997292,-76.56983888,1
874,7200 097 061016,7200,97,1423 ELMTREE ST,6/10/2016,CURTIS BAY,SOUTHERN,10,39.22419941,-76.59005705,1
875,0036B068 061416,0036B,68,1333 N CALHOUN ST,6/14/2016,SANDTOWN-WINCHESTER,WESTERN,7,39.30436179,-76.64015755,1
876,0162 120 061416,162,120,206 N MONROE ST,6/14/2016,PENROSE/FAYETTE STREET OUTREACH,WESTERN,9,39.29077832,-76.64733522,1
877,0163 007 061416,163,7,1812 W LEXINGTON ST,6/14/2016,FRANKLIN SQUARE,WESTERN,9,39.2908103,-76.64616975,1
878,0218 001 061316,218,1,1001 W BALTIMORE ST,6/13/2016,HOLLINS MARKET,SOUTHERN,9,39.28845283,-76.63422685,1
879,0227 053 061316,227,53,40 S FULTON AVE,6/13/2016,CARROLLTON RIDGE,SOUTHERN,9,39.28668705,-76.6454632,1
880,0228 023 061316,228,23,41 S FULTON AVE,6/13/2016,UNION SQUARE,SOUTHERN,9,39.28671887,-76.64473137,1
881,0035 056 080816,35,56,1356 N CALHOUN ST,8/8/2016,SANDTOWN-WINCHESTER,WESTERN,7,39.30477799,-76.64070559,1
882,0079 001 081216,79,1,1100 W LAFAYETTE AVE,8/12/2016,SANDTOWN-WINCHESTER,WESTERN,9,39.2994464,-76.63603791,1
883,1677 046 081116,1677,46,420 N CURLEY ST,8/11/2016,ELLWOOD PARK/MONUMENT,SOUTHEASTERN,13,39.29654618,-76.57595185,1
884,1690 085 081016,1690,85,216 N PORT ST,8/10/2016,PATTERSON PLACE,SOUTHEASTERN,13,39.29493785,-76.58294557,1
885,1691 079 080816,1691,79,220 N ROSE ST,8/8/2016,MCELDERRY PARK,SOUTHEASTERN,13,39.29510048,-76.58153434,1
886,1691 084 080816,1691,84,230 N ROSE ST,8/8/2016,MCELDERRY PARK,SOUTHEASTERN,13,39.29526526,-76.58154283,1
887,1691 085 080816,1691,85,232 N ROSE ST,8/8/2016,MCELDERRY PARK,SOUTHEASTERN,13,39.29529752,-76.58154749,1
888,1691 090 081016,1691,90,242 N ROSE ST,8/10/2016,MCELDERRY PARK,SOUTHEASTERN,13,39.29546224,-76.58155622,1
889,1691 094 080816,1691,94,233 N ROSE ST,8/8/2016,MCELDERRY PARK,SOUTHEASTERN,13,39.29531188,-76.58118203,1
890,1691 097 080816,1691,97,227 N ROSE ST,8/8/2016,MCELDERRY PARK,SOUTHEASTERN,13,39.29521349,-76.58117692,1
891,1691 100 080816,1691,100,221 N ROSE ST,8/8/2016,MCELDERRY PARK,SOUTHEASTERN,13,39.29511519,-76.58117245,1
892,1707 027 081016,1707,27,151 N PATTERSON PARK AVE,8/10/2016,PATTERSON PLACE,SOUTHEASTERN,1,39.29415065,-76.58456017,1
893,2170B058 080916,2170B,58,2535 W FAIRMOUNT AVE,8/9/2016,SHIPLEY HILL,SOUTHWESTERN,9,39.28812889,-76.65746404,1
894,0239 032 061416,239,32,212 FURROW ST,6/14/2016,CARROLLTON RIDGE,SOUTHWESTERN,9,39.28434195,-76.65219245,1
895,0244 024 061716,244,24,123 S FULTON AVE,6/17/2016,UNION SQUARE,SOUTHERN,9,39.28545212,-76.64481079,1
896,0248 041 061316,248,41,1304 W PRATT ST,6/13/2016,UNION SQUARE,SOUTHERN,9,39.28580296,-76.63835032,1
897,0265 087 061416,265,87,1301 KUPER ST,6/14/2016,NEW SOUTHWEST/MOUNT CLARE,SOUTHERN,9,39.28483977,-76.63868982,1
898,0299 068 061716,299,68,506 BAKER ST,6/17/2016,DRUID HEIGHTS,CENTRAL,7,39.3098025,-76.6386321,1
899,0300C070 061616,0300C,70,1551 N WOODYEAR ST,6/16/2016,SANDTOWN-WINCHESTER,WESTERN,7,39.30705749,-76.64123214,1
900,0347 042 061616,347,42,1604 DIVISION ST,6/16/2016,UPTON,CENTRAL,11,39.30367551,-76.63305699,1
901,0414 041 061616,414,41,1328 DIVISION ST,6/16/2016,UPTON,CENTRAL,11,39.30146743,-76.63034767,1
902,0431 035 061616,431,35,1150 ARGYLE AVE,6/16/2016,UPTON,CENTRAL,11,39.29853295,-76.63060012,1
903,0452 040 061616,452,40,851 HARLEM AVE,6/16/2016,UPTON,CENTRAL,11,39.29663835,-76.63248878,1
904,0486 008 061316,486,8,216 E BIDDLE ST,6/13/2016,MID-TOWN BELVEDERE,CENTRAL,12,39.30380294,-76.61231652,1
905,0121 007 080816,121,7,522 N MOUNT ST,8/8/2016,HARLEM PARK,WESTERN,9,39.29447687,-76.64436881,1
906,0121 009 080816,121,9,526 N MOUNT ST,8/8/2016,HARLEM PARK,WESTERN,9,39.29455377,-76.64437315,1
907,0126 055 081016,126,55,1208 W FRANKLIN ST,8/10/2016,HARLEM PARK,WESTERN,9,39.2944281,-76.63781349,1
908,0127 045 080816,127,45,536 N ARLINGTON AVE,8/8/2016,HARLEM PARK,WESTERN,9,39.29537779,-76.63593331,1
909,1137 035 061416,1137,35,1401 N CAROLINE ST,6/14/2016,OLIVER,EASTERN,12,39.30639672,-76.59782826,1
910,1164A019 061316,1164A,19,1203 N BOND ST,6/13/2016,OLIVER,EASTERN,12,39.30436603,-76.59629798,1
911,1395 024 061716,1395,24,114 S BROADWAY,6/17/2016,WASHINGTON HILL,SOUTHEASTERN,12,39.28985457,-76.5943709,1
912,1447 069 061616,1447,69,1824 E LAFAYETTE AVE,6/16/2016,BROADWAY EAST,EASTERN,12,39.31095863,-76.59214633,1
913,1570 014 061416,1570,14,2227 E CHASE ST,6/14/2016,MIDDLE EAST,EASTERN,13,39.30335663,-76.58615946,1
914,1572 019 061416,1572,19,1052 N MILTON AVE,6/14/2016,BIDDLE STREET,EASTERN,13,39.30353316,-76.58284567,1
915,1576 035 061416,1576,35,2831 E BIDDLE ST,6/14/2016,BIDDLE STREET,EASTERN,13,39.30476199,-76.57758747,1
